{
  "generated_at": "2025-12-06T13:58:15.410956",
  "source": "OpenStreetMap Overpass API",
  "count": 480,
  "clubs": [
    {
      "osm_id": 374007267,
      "osm_type": "node",
      "name": "Sakura-Fit",
      "name_uk": "Sakura-Fit",
      "name_en": "",
      "brand": "Fitness Club",
      "lat": 50.3882878,
      "lng": 30.4893545,
      "city": "Kyiv",
      "city_uk": "Київ",
      "address": "вулиця Зої Бутенко",
      "website": "",
      "phone": "+380 44 585 2728",
      "opening_hours": "Mo-Su 9:00-22:30"
    },
    {
      "osm_id": 419371199,
      "osm_type": "node",
      "name": "Гармонія",
      "name_uk": "Гармонія",
      "name_en": "",
      "brand": "Fitness Club",
      "lat": 50.440452,
      "lng": 30.4613445,
      "city": "Kyiv",
      "city_uk": "Київ",
      "address": "",
      "website": "",
      "phone": "",
      "opening_hours": ""
    },
    {
      "osm_id": 427638904,
      "osm_type": "node",
      "name": "Лемон",
      "name_uk": "Лемон",
      "name_en": "",
      "brand": "Fitness Club",
      "lat": 50.4827365,
      "lng": 30.631974,
      "city": "Kyiv",
      "city_uk": "Київ",
      "address": "",
      "website": "",
      "phone": "",
      "opening_hours": ""
    },
    {
      "osm_id": 651603753,
      "osm_type": "node",
      "name": "Fit Curves",
      "name_uk": "Fit Curves",
      "name_en": "",
      "brand": "Fit Curves",
      "lat": 50.4152316,
      "lng": 30.5194566,
      "city": "Kyiv",
      "city_uk": "Київ",
      "address": "",
      "website": "",
      "phone": "",
      "opening_hours": ""
    },
    {
      "osm_id": 747737016,
      "osm_type": "node",
      "name": "Йога Студія",
      "name_uk": "Йога Студія",
      "name_en": "",
      "brand": "Fitness Club",
      "lat": 50.416801,
      "lng": 30.517265,
      "city": "Kyiv",
      "city_uk": "Київ",
      "address": "",
      "website": "",
      "phone": "",
      "opening_hours": ""
    },
    {
      "osm_id": 926621258,
      "osm_type": "node",
      "name": "Спорт Експрес",
      "name_uk": "Спорт Експрес",
      "name_en": "",
      "brand": "Fitness Club",
      "lat": 50.4596085,
      "lng": 30.4894934,
      "city": "Kyiv",
      "city_uk": "Київ",
      "address": "",
      "website": "",
      "phone": "",
      "opening_hours": ""
    },
    {
      "osm_id": 1030609672,
      "osm_type": "node",
      "name": "Успіх",
      "name_uk": "Успіх",
      "name_en": "Success",
      "brand": "Fitness Club",
      "lat": 50.4171828,
      "lng": 30.5198031,
      "city": "Kyiv",
      "city_uk": "Київ",
      "address": "",
      "website": "",
      "phone": "+380 44 206 2771",
      "opening_hours": "Mo-Fr 08:00-22:00;Sa 08:00-20:00;Su 10:00-14:00"
    },
    {
      "osm_id": 1367898112,
      "osm_type": "node",
      "name": "Стенд «Вертикаль»",
      "name_uk": "Стенд «Вертикаль»",
      "name_en": "",
      "brand": "Fitness Club",
      "lat": 50.4365484,
      "lng": 30.4229516,
      "city": "Kyiv",
      "city_uk": "Київ",
      "address": "",
      "website": "",
      "phone": "",
      "opening_hours": ""
    },
    {
      "osm_id": 1386257343,
      "osm_type": "node",
      "name": "GymFit",
      "name_uk": "GymFit",
      "name_en": "",
      "brand": "Fitness Club",
      "lat": 50.422982,
      "lng": 30.3804337,
      "city": "Kyiv",
      "city_uk": "Київ",
      "address": "",
      "website": "",
      "phone": "",
      "opening_hours": ""
    },
    {
      "osm_id": 1485674555,
      "osm_type": "node",
      "name": "Спортивна школа №1",
      "name_uk": "Спортивна школа №1",
      "name_en": "",
      "brand": "Fitness Club",
      "lat": 50.4213848,
      "lng": 30.536497,
      "city": "Kyiv",
      "city_uk": "Київ",
      "address": "",
      "website": "",
      "phone": "",
      "opening_hours": ""
    },
    {
      "osm_id": 1591480404,
      "osm_type": "node",
      "name": "Аватар",
      "name_uk": "Аватар",
      "name_en": "",
      "brand": "Fitness Club",
      "lat": 50.4267778,
      "lng": 30.6394153,
      "city": "Kyiv",
      "city_uk": "Київ",
      "address": "Харківське шосе",
      "website": "",
      "phone": "",
      "opening_hours": ""
    },
    {
      "osm_id": 1641827789,
      "osm_type": "node",
      "name": "Fitness24",
      "name_uk": "Fitness24",
      "name_en": "Fitness24",
      "brand": "Fitness Club",
      "lat": 50.4134364,
      "lng": 30.4671341,
      "city": "Kyiv",
      "city_uk": "Київ",
      "address": "",
      "website": "",
      "phone": "",
      "opening_hours": ""
    },
    {
      "osm_id": 1657131383,
      "osm_type": "node",
      "name": "Спортклуб «Добро»",
      "name_uk": "Спортклуб «Добро»",
      "name_en": "",
      "brand": "Fitness Club",
      "lat": 50.4076986,
      "lng": 30.634092,
      "city": "Kyiv",
      "city_uk": "Київ",
      "address": "",
      "website": "",
      "phone": "",
      "opening_hours": ""
    },
    {
      "osm_id": 1658093329,
      "osm_type": "node",
      "name": "Альбіон фітнес клуб",
      "name_uk": "Альбіон фітнес клуб",
      "name_en": "",
      "brand": "Fitness Club",
      "lat": 50.4526053,
      "lng": 30.4457103,
      "city": "Kyiv",
      "city_uk": "Київ",
      "address": "вулиця Вадима Гетьмана",
      "website": "",
      "phone": "",
      "opening_hours": ""
    },
    {
      "osm_id": 1754674646,
      "osm_type": "node",
      "name": "Аеліта",
      "name_uk": "Аеліта",
      "name_en": "",
      "brand": "Fitness Club",
      "lat": 50.3659352,
      "lng": 30.4533692,
      "city": "Kyiv",
      "city_uk": "Київ",
      "address": "",
      "website": "",
      "phone": "",
      "opening_hours": ""
    },
    {
      "osm_id": 1791338501,
      "osm_type": "node",
      "name": "Росичи",
      "name_uk": "Росичи",
      "name_en": "",
      "brand": "Fitness Club",
      "lat": 50.4248748,
      "lng": 30.6131485,
      "city": "Kyiv",
      "city_uk": "Київ",
      "address": "Березняківська вулиця",
      "website": "",
      "phone": "",
      "opening_hours": ""
    },
    {
      "osm_id": 1922332245,
      "osm_type": "node",
      "name": "Sport Life Протасів Яр",
      "name_uk": "Спорт Лайф Протасів Яр",
      "name_en": "Sport Life Protasiv Yar",
      "brand": "Sport Life",
      "lat": 50.4251254,
      "lng": 30.506679,
      "city": "Kyiv",
      "city_uk": "Київ",
      "address": "вулиця Миколи Грінченка",
      "website": "https://www.sportlife.ua/uk/clubs/kiev/protasovyar",
      "phone": "",
      "opening_hours": "Mo-Fr 07:00-23:00; Sa,Su 09:00-22:00"
    },
    {
      "osm_id": 1985776099,
      "osm_type": "node",
      "name": "Red Barbell",
      "name_uk": "Ред Барбел",
      "name_en": "",
      "brand": "Red Barbell",
      "lat": 50.476408,
      "lng": 30.6244777,
      "city": "Kyiv",
      "city_uk": "Київ",
      "address": "вулиця Ореста Левицького",
      "website": "https://redbarbell.com.ua/clubs/lisova/",
      "phone": "+380991287207",
      "opening_hours": "Mo-Fr 07:00-23:00; Sa,Su 08:00-22:00"
    },
    {
      "osm_id": 2099063708,
      "osm_type": "node",
      "name": "FitCurve",
      "name_uk": "FitCurve",
      "name_en": "",
      "brand": "Fitness Club",
      "lat": 50.4676616,
      "lng": 30.6293355,
      "city": "Kyiv",
      "city_uk": "Київ",
      "address": "",
      "website": "",
      "phone": "",
      "opening_hours": "Mo-Th 08:00-13:00,16:00-21:00; Fr 08:00-13:00,16:00-20:00; Sa 10:00-14:00"
    },
    {
      "osm_id": 2126008011,
      "osm_type": "node",
      "name": "Sport Life Солом'янка",
      "name_uk": "Спорт Лайф Солом'янка",
      "name_en": "Sport Life Solomianka",
      "brand": "Sport Life",
      "lat": 50.4311757,
      "lng": 30.4876762,
      "city": "Kyiv",
      "city_uk": "Київ",
      "address": "Мокра вулиця",
      "website": "https://www.sportlife.ua/uk/clubs/kiev/protasovyar",
      "phone": "+380 44 222 4222",
      "opening_hours": "Mo-Fr 07:00-23:00; Sa,Su 09:00-22:00"
    },
    {
      "osm_id": 2165044669,
      "osm_type": "node",
      "name": "ГЕПАРД пейнтбольний клуб",
      "name_uk": "ГЕПАРД пейнтбольний клуб",
      "name_en": "Gepard paintball club",
      "brand": "Fitness Club",
      "lat": 50.4509851,
      "lng": 30.3371786,
      "city": "Kyiv",
      "city_uk": "Київ",
      "address": "",
      "website": "",
      "phone": "",
      "opening_hours": ""
    },
    {
      "osm_id": 2317803403,
      "osm_type": "node",
      "name": "Grand Prix",
      "name_uk": "Grand Prix",
      "name_en": "",
      "brand": "Fitness Club",
      "lat": 50.4323337,
      "lng": 30.5088401,
      "city": "Kyiv",
      "city_uk": "Київ",
      "address": "",
      "website": "https://grand-prix.ua/",
      "phone": "+380 44 230 2000",
      "opening_hours": ""
    },
    {
      "osm_id": 2358309778,
      "osm_type": "node",
      "name": "Студія фітнесу і танцю",
      "name_uk": "Студія фітнесу і танцю",
      "name_en": "Fitnesse and dance studio",
      "brand": "Fitness Club",
      "lat": 50.3939015,
      "lng": 30.4944553,
      "city": "Kyiv",
      "city_uk": "Київ",
      "address": "",
      "website": "",
      "phone": "",
      "opening_hours": ""
    },
    {
      "osm_id": 2411750649,
      "osm_type": "node",
      "name": "АтлетиКО",
      "name_uk": "АтлетиКО",
      "name_en": "",
      "brand": "Fitness Club",
      "lat": 50.4113839,
      "lng": 30.6437599,
      "city": "Kyiv",
      "city_uk": "Київ",
      "address": "",
      "website": "",
      "phone": "",
      "opening_hours": ""
    },
    {
      "osm_id": 2422623654,
      "osm_type": "node",
      "name": "Druzhba Sport",
      "name_uk": "Druzhba Sport",
      "name_en": "",
      "brand": "Fitness Club",
      "lat": 50.4124695,
      "lng": 30.5299973,
      "city": "Kyiv",
      "city_uk": "Київ",
      "address": "",
      "website": "",
      "phone": "",
      "opening_hours": ""
    },
    {
      "osm_id": 2425075603,
      "osm_type": "node",
      "name": "Секція боротьби",
      "name_uk": "Секція боротьби",
      "name_en": "",
      "brand": "Fitness Club",
      "lat": 50.3931087,
      "lng": 30.4932547,
      "city": "Kyiv",
      "city_uk": "Київ",
      "address": "",
      "website": "",
      "phone": "",
      "opening_hours": ""
    },
    {
      "osm_id": 2647704251,
      "osm_type": "node",
      "name": "Софійський",
      "name_uk": "Софійський",
      "name_en": "",
      "brand": "Fitness Club",
      "lat": 50.4545098,
      "lng": 30.5141377,
      "city": "Kyiv",
      "city_uk": "Київ",
      "address": "",
      "website": "",
      "phone": "",
      "opening_hours": ""
    },
    {
      "osm_id": 2880928776,
      "osm_type": "node",
      "name": "Дії Спорт клуб",
      "name_uk": "Дії Спорт клуб",
      "name_en": "",
      "brand": "Fitness Club",
      "lat": 50.4601748,
      "lng": 30.3484311,
      "city": "Kyiv",
      "city_uk": "Київ",
      "address": "",
      "website": "",
      "phone": "",
      "opening_hours": ""
    },
    {
      "osm_id": 2883164776,
      "osm_type": "node",
      "name": "Energym",
      "name_uk": "Energym",
      "name_en": "",
      "brand": "Fitness Club",
      "lat": 50.4291419,
      "lng": 30.5937166,
      "city": "Kyiv",
      "city_uk": "Київ",
      "address": "",
      "website": "https://energym-sport.com/",
      "phone": "",
      "opening_hours": ""
    },
    {
      "osm_id": 2933297090,
      "osm_type": "node",
      "name": "Aikido",
      "name_uk": "Aikido",
      "name_en": "",
      "brand": "Fitness Club",
      "lat": 50.4010915,
      "lng": 30.5147471,
      "city": "Kyiv",
      "city_uk": "Київ",
      "address": "",
      "website": "",
      "phone": "",
      "opening_hours": ""
    },
    {
      "osm_id": 2961341694,
      "osm_type": "node",
      "name": "Sport Life",
      "name_uk": "Sport Life",
      "name_en": "Sport Life",
      "brand": "Sport Life",
      "lat": 50.4390624,
      "lng": 30.4414632,
      "city": "Kyiv",
      "city_uk": "Київ",
      "address": "вулиця Миколи Голего",
      "website": "https://sportlife.ua/uk/clubs/kiev/karavayevi-dachi/",
      "phone": "+380 44 593 9575",
      "opening_hours": "Mo-Fr 08:00-22:00; Sa,Su 09:00-20:00"
    },
    {
      "osm_id": 3043795867,
      "osm_type": "node",
      "name": "SportFit",
      "name_uk": "SportFit",
      "name_en": "SportFit",
      "brand": "Fitness Club",
      "lat": 50.5157015,
      "lng": 30.5163633,
      "city": "Kyiv",
      "city_uk": "Київ",
      "address": "",
      "website": "",
      "phone": "",
      "opening_hours": ""
    },
    {
      "osm_id": 3078431780,
      "osm_type": "node",
      "name": "Evolution Sport",
      "name_uk": "Evolution Sport",
      "name_en": "Evolution Gym",
      "brand": "Fitness Club",
      "lat": 50.4386115,
      "lng": 30.5980933,
      "city": "Kyiv",
      "city_uk": "Київ",
      "address": "",
      "website": "",
      "phone": "",
      "opening_hours": ""
    },
    {
      "osm_id": 3086802845,
      "osm_type": "node",
      "name": "Гіперіон",
      "name_uk": "Гіперіон",
      "name_en": "",
      "brand": "Fitness Club",
      "lat": 50.4733193,
      "lng": 30.4984999,
      "city": "Kyiv",
      "city_uk": "Київ",
      "address": "",
      "website": "https://hyperion.kiev.ua",
      "phone": "+380 50 717 8686;+380 67 340 0022;+380 44 353 1000",
      "opening_hours": "Mo-Fr 10:00-22:00; Sa-Su 10:00-19:00"
    },
    {
      "osm_id": 3182833359,
      "osm_type": "node",
      "name": "Фітнес-клуб InterFit",
      "name_uk": "Фітнес-клуб InterFit",
      "name_en": "",
      "brand": "Fitness Club",
      "lat": 50.4321777,
      "lng": 30.5154271,
      "city": "Kyiv",
      "city_uk": "Київ",
      "address": "",
      "website": "https://interfit.kiev.ua/",
      "phone": "+380 44 585 9743",
      "opening_hours": ""
    },
    {
      "osm_id": 3182833729,
      "osm_type": "node",
      "name": "Фітнес-клуб «InterFit»",
      "name_uk": "Фітнес-клуб «InterFit»",
      "name_en": "",
      "brand": "Fitness Club",
      "lat": 50.5336195,
      "lng": 30.600775,
      "city": "Kyiv",
      "city_uk": "Київ",
      "address": "",
      "website": "https://interfit.kiev.ua/",
      "phone": "+380 44 393 4729",
      "opening_hours": ""
    },
    {
      "osm_id": 3217441650,
      "osm_type": "node",
      "name": "My Fit",
      "name_uk": "My Fit",
      "name_en": "My Fit",
      "brand": "Fitness Club",
      "lat": 50.4292667,
      "lng": 30.445602,
      "city": "Kyiv",
      "city_uk": "Київ",
      "address": "",
      "website": "http://myfit.ua/fitclubs/ushinskogo28/",
      "phone": "",
      "opening_hours": ""
    },
    {
      "osm_id": 3228073371,
      "osm_type": "node",
      "name": "Адреналін",
      "name_uk": "Адреналін",
      "name_en": "",
      "brand": "Fitness Club",
      "lat": 50.4594728,
      "lng": 30.3378068,
      "city": "Kyiv",
      "city_uk": "Київ",
      "address": "",
      "website": "",
      "phone": "",
      "opening_hours": ""
    },
    {
      "osm_id": 3233417187,
      "osm_type": "node",
      "name": "Fitness Life",
      "name_uk": "Fitness Life",
      "name_en": "",
      "brand": "Fitness Club",
      "lat": 50.4650659,
      "lng": 30.6251377,
      "city": "Kyiv",
      "city_uk": "Київ",
      "address": "",
      "website": "http://fit-life.kiev.ua/",
      "phone": "",
      "opening_hours": "Mo-Fr 07:00-23:00, Sa-Su 09:00-21:00"
    },
    {
      "osm_id": 3269036038,
      "osm_type": "node",
      "name": "Fitness Expert",
      "name_uk": "Fitness Expert",
      "name_en": "",
      "brand": "Fitness Club",
      "lat": 50.3934355,
      "lng": 30.4873953,
      "city": "Kyiv",
      "city_uk": "Київ",
      "address": "",
      "website": "http://www.fitexpert.net.ua/",
      "phone": "",
      "opening_hours": "Mo-Fr 07:00-23:00; Sa, Su 09:00-21:00"
    },
    {
      "osm_id": 3269036042,
      "osm_type": "node",
      "name": "Клуб бойових мистецтв \"У-Син\"",
      "name_uk": "Клуб бойових мистецтв \"У-Син\"",
      "name_en": "",
      "brand": "Fitness Club",
      "lat": 50.3797858,
      "lng": 30.4500752,
      "city": "Kyiv",
      "city_uk": "Київ",
      "address": "",
      "website": "http://usin.ucoz.ua",
      "phone": "",
      "opening_hours": ""
    },
    {
      "osm_id": 3275867447,
      "osm_type": "node",
      "name": "Sport and Spa",
      "name_uk": "Sport and Spa",
      "name_en": "",
      "brand": "Fitness Club",
      "lat": 50.4359202,
      "lng": 30.3901545,
      "city": "Kyiv",
      "city_uk": "Київ",
      "address": "вулиця Героїв Космосу",
      "website": "",
      "phone": "",
      "opening_hours": ""
    },
    {
      "osm_id": 3426338194,
      "osm_type": "node",
      "name": "Кремез",
      "name_uk": "Кремез",
      "name_en": "",
      "brand": "Fitness Club",
      "lat": 50.4345469,
      "lng": 30.5042411,
      "city": "Kyiv",
      "city_uk": "Київ",
      "address": "Жилянська вулиця",
      "website": "",
      "phone": "+380 44 289 0584",
      "opening_hours": ""
    },
    {
      "osm_id": 3512345598,
      "osm_type": "node",
      "name": "Софія спорт",
      "name_uk": "Софія спорт",
      "name_en": "",
      "brand": "Fitness Club",
      "lat": 50.4013089,
      "lng": 30.3776391,
      "city": "Kyiv",
      "city_uk": "Київ",
      "address": "вулиця Лесі Українки",
      "website": "",
      "phone": "",
      "opening_hours": ""
    },
    {
      "osm_id": 3567042569,
      "osm_type": "node",
      "name": "СпортЛенд",
      "name_uk": "СпортЛенд",
      "name_en": "",
      "brand": "Fitness Club",
      "lat": 50.5010313,
      "lng": 30.4959313,
      "city": "Kyiv",
      "city_uk": "Київ",
      "address": "",
      "website": "https://sportlandclub.com.ua/ru/clubs/obolon/",
      "phone": "+380 44 469 0607",
      "opening_hours": "Mo-Fr 09:00-23:00; Sa-Su 09:00-22:00"
    },
    {
      "osm_id": 3573462193,
      "osm_type": "node",
      "name": "Freestyle",
      "name_uk": "Freestyle",
      "name_en": "",
      "brand": "Fitness Club",
      "lat": 50.4378697,
      "lng": 30.6149635,
      "city": "Kyiv",
      "city_uk": "Київ",
      "address": "",
      "website": "http://www.fs.net.ua/",
      "phone": "",
      "opening_hours": ""
    },
    {
      "osm_id": 3579390217,
      "osm_type": "node",
      "name": "JustFit",
      "name_uk": "JustFit",
      "name_en": "",
      "brand": "Fitness Club",
      "lat": 50.3860744,
      "lng": 30.4721278,
      "city": "Kyiv",
      "city_uk": "Київ",
      "address": "",
      "website": "",
      "phone": "",
      "opening_hours": "Mo-Fr 09:00-22:00; Sa,Su 10:00-22:00"
    },
    {
      "osm_id": 3608572656,
      "osm_type": "node",
      "name": "Fitness Life",
      "name_uk": "Fitness Life",
      "name_en": "Fitness Life",
      "brand": "Fitness Club",
      "lat": 50.4182775,
      "lng": 30.4757836,
      "city": "Kyiv",
      "city_uk": "Київ",
      "address": "",
      "website": "http://fit-life.kiev.ua/solomenka",
      "phone": "+380 44 275 6463",
      "opening_hours": "Mo-Fr 07:00-23:00; Sa-Su 09:00-21:00"
    },
    {
      "osm_id": 3641504856,
      "osm_type": "node",
      "name": "Подольський",
      "name_uk": "Подольський",
      "name_en": "",
      "brand": "Fitness Club",
      "lat": 50.4712976,
      "lng": 30.5177971,
      "city": "Kyiv",
      "city_uk": "Київ",
      "address": "",
      "website": "http://podolfitness.com.ua/",
      "phone": "",
      "opening_hours": "Mo-Fr 7:00-23:00; Sa-Su 9:00-22:00"
    },
    {
      "osm_id": 3679837057,
      "osm_type": "node",
      "name": "5 елемент",
      "name_uk": "5 елемент",
      "name_en": "",
      "brand": "Fitness Club",
      "lat": 50.478424,
      "lng": 30.5339954,
      "city": "Kyiv",
      "city_uk": "Київ",
      "address": "",
      "website": "https://5element.ua/",
      "phone": "",
      "opening_hours": ""
    },
    {
      "osm_id": 3693829530,
      "osm_type": "node",
      "name": "Igtex",
      "name_uk": "Igtex",
      "name_en": "",
      "brand": "Fitness Club",
      "lat": 50.4344865,
      "lng": 30.5018817,
      "city": "Kyiv",
      "city_uk": "Київ",
      "address": "",
      "website": "",
      "phone": "",
      "opening_hours": ""
    },
    {
      "osm_id": 3695918686,
      "osm_type": "node",
      "name": "Тренажерний зал",
      "name_uk": "Тренажерний зал",
      "name_en": "",
      "brand": "Fitness Club",
      "lat": 50.50501,
      "lng": 30.7845654,
      "city": "Kyiv",
      "city_uk": "Київ",
      "address": "",
      "website": "",
      "phone": "",
      "opening_hours": ""
    },
    {
      "osm_id": 3704168825,
      "osm_type": "node",
      "name": "Sport Life",
      "name_uk": "Спорт Лайф Індустріальний",
      "name_en": "Sport Life Industrialnyi",
      "brand": "Sport Life",
      "lat": 50.4468176,
      "lng": 30.4435496,
      "city": "Kyiv",
      "city_uk": "Київ",
      "address": "Борщагівська вулиця",
      "website": "https://www.sportlife.ua/uk/clubs/kiev/industrialniy",
      "phone": "",
      "opening_hours": "Mo-Fr 07:00-23:00; Sa,Su 09:00-22:00"
    },
    {
      "osm_id": 3724666037,
      "osm_type": "node",
      "name": "Sport Life Куренівка",
      "name_uk": "Спорт Лайф Куренівка",
      "name_en": "Sport Life Kurenivka",
      "brand": "Sport Life",
      "lat": 50.4882992,
      "lng": 30.4714214,
      "city": "Kyiv",
      "city_uk": "Київ",
      "address": "Кирилівська вулиця",
      "website": "https://www.sportlife.ua/uk/clubs/kiev/kurenevka",
      "phone": "",
      "opening_hours": "Mo-Fr 07:00-23:00; Sa,Su 09:00-22:00"
    },
    {
      "osm_id": 3724666038,
      "osm_type": "node",
      "name": "Sport Life",
      "name_uk": "Sport Life",
      "name_en": "Sport Life",
      "brand": "Sport Life",
      "lat": 50.5162639,
      "lng": 30.4986564,
      "city": "Kyiv",
      "city_uk": "Київ",
      "address": "Оболонський проспект",
      "website": "https://sportlife.ua/uk/clubs/kiev/dream/",
      "phone": "",
      "opening_hours": "Mo-Fr 07:00-22:00; Sa,Su 09:00-20:00"
    },
    {
      "osm_id": 3727730166,
      "osm_type": "node",
      "name": "\"Скорпион\"",
      "name_uk": "\"Скорпион\"",
      "name_en": "",
      "brand": "Fitness Club",
      "lat": 50.4496289,
      "lng": 30.4937938,
      "city": "Kyiv",
      "city_uk": "Київ",
      "address": "",
      "website": "",
      "phone": "",
      "opening_hours": ""
    },
    {
      "osm_id": 3788830951,
      "osm_type": "node",
      "name": "Тренажерна зала Tiger Fitness",
      "name_uk": "Тренажерна зала Tiger Fitness",
      "name_en": "",
      "brand": "Fitness Club",
      "lat": 50.3792456,
      "lng": 30.7071798,
      "city": "Kyiv",
      "city_uk": "Київ",
      "address": "вулиця Івана Дяченка",
      "website": "https://tigerfitness.com.ua/",
      "phone": "+380 67 920 0707",
      "opening_hours": "07:00-23:00"
    },
    {
      "osm_id": 3807314363,
      "osm_type": "node",
      "name": "СпортЛенд",
      "name_uk": "СпортЛенд",
      "name_en": "SportLand",
      "brand": "Fitness Club",
      "lat": 50.4549965,
      "lng": 30.5939569,
      "city": "Kyiv",
      "city_uk": "Київ",
      "address": "",
      "website": "https://sportlandclub.com.ua/uk/kluby/sport-lend-levoberezhnaya/",
      "phone": "+38 (050) 411-58-40;+38 (050) 800-10-62",
      "opening_hours": "Mo-Fr 07:00-23:00; Sa-Su 09:00-22:00"
    },
    {
      "osm_id": 3811372835,
      "osm_type": "node",
      "name": "Спорт Ленд",
      "name_uk": "Спорт Ленд",
      "name_en": "",
      "brand": "Fitness Club",
      "lat": 50.5320678,
      "lng": 30.6083137,
      "city": "Kyiv",
      "city_uk": "Київ",
      "address": "",
      "website": "",
      "phone": "",
      "opening_hours": ""
    },
    {
      "osm_id": 3830507918,
      "osm_type": "node",
      "name": "TSARSKY CITY RESORT",
      "name_uk": "TSARSKY CITY RESORT",
      "name_en": "TSARSKY CITY RESORT",
      "brand": "Fitness Club",
      "lat": 50.4266972,
      "lng": 30.5438687,
      "city": "Kyiv",
      "city_uk": "Київ",
      "address": "",
      "website": "",
      "phone": "",
      "opening_hours": ""
    },
    {
      "osm_id": 3835446232,
      "osm_type": "node",
      "name": "Дії",
      "name_uk": "Дії",
      "name_en": "",
      "brand": "Fitness Club",
      "lat": 50.4606564,
      "lng": 30.3624054,
      "city": "Kyiv",
      "city_uk": "Київ",
      "address": "",
      "website": "",
      "phone": "",
      "opening_hours": ""
    },
    {
      "osm_id": 3854318002,
      "osm_type": "node",
      "name": "Grand Sport",
      "name_uk": "Grand Sport",
      "name_en": "",
      "brand": "Fitness Club",
      "lat": 50.4547572,
      "lng": 30.3742151,
      "city": "Kyiv",
      "city_uk": "Київ",
      "address": "",
      "website": "http://lvivskaya.grand-sport.kiev.ua/",
      "phone": "",
      "opening_hours": "Mo-Fr 07:00-22:00; Su 10:00-20:00; Sa 10:00-21:00"
    },
    {
      "osm_id": 4014620362,
      "osm_type": "node",
      "name": "Sport Life",
      "name_uk": "Sport Life",
      "name_en": "Sport Life",
      "brand": "Sport Life",
      "lat": 50.4877562,
      "lng": 30.5073079,
      "city": "Kyiv",
      "city_uk": "Київ",
      "address": "проспект Степана Бандери",
      "website": "https://sportlife.ua/uk/clubs/kiev/pochaina/",
      "phone": "",
      "opening_hours": "Mo-Fr 08:00-22:00; Sa-Su 09:00-20:00"
    },
    {
      "osm_id": 4073352800,
      "osm_type": "node",
      "name": "Тонус",
      "name_uk": "Тонус",
      "name_en": "",
      "brand": "Fitness Club",
      "lat": 50.5163987,
      "lng": 30.8103686,
      "city": "Kyiv",
      "city_uk": "Київ",
      "address": "вулиця Симона Петлюри",
      "website": "",
      "phone": "",
      "opening_hours": ""
    },
    {
      "osm_id": 4075463390,
      "osm_type": "node",
      "name": "Школа боротьби",
      "name_uk": "Школа боротьби",
      "name_en": "",
      "brand": "Fitness Club",
      "lat": 50.4350288,
      "lng": 30.5078219,
      "city": "Kyiv",
      "city_uk": "Київ",
      "address": "",
      "website": "",
      "phone": "",
      "opening_hours": ""
    },
    {
      "osm_id": 4084714175,
      "osm_type": "node",
      "name": "Фітнес-клуб «HappyGYM»",
      "name_uk": "Фітнес-клуб «HappyGYM»",
      "name_en": "",
      "brand": "Fitness Club",
      "lat": 50.5462521,
      "lng": 30.2149395,
      "city": "Kyiv",
      "city_uk": "Київ",
      "address": "вулиця Чорних Запорожців",
      "website": "",
      "phone": "",
      "opening_hours": ""
    },
    {
      "osm_id": 4084734327,
      "osm_type": "node",
      "name": "Фітнес-клуб «Кристал»",
      "name_uk": "Фітнес-клуб «Кристал»",
      "name_en": "",
      "brand": "Fitness Club",
      "lat": 50.5498137,
      "lng": 30.2071015,
      "city": "Kyiv",
      "city_uk": "Київ",
      "address": "",
      "website": "",
      "phone": "",
      "opening_hours": ""
    },
    {
      "osm_id": 4086075249,
      "osm_type": "node",
      "name": "GollGym",
      "name_uk": "GollGym",
      "name_en": "",
      "brand": "Fitness Club",
      "lat": 50.526632,
      "lng": 30.7920322,
      "city": "Kyiv",
      "city_uk": "Київ",
      "address": "",
      "website": "",
      "phone": "",
      "opening_hours": ""
    },
    {
      "osm_id": 4086165290,
      "osm_type": "node",
      "name": "Йога в Ірпені",
      "name_uk": "Йога в Ірпені",
      "name_en": "",
      "brand": "Fitness Club",
      "lat": 50.5281043,
      "lng": 30.2414866,
      "city": "Kyiv",
      "city_uk": "Київ",
      "address": "",
      "website": "",
      "phone": "",
      "opening_hours": ""
    },
    {
      "osm_id": 4086247986,
      "osm_type": "node",
      "name": "Тонус",
      "name_uk": "Тонус",
      "name_en": "",
      "brand": "Fitness Club",
      "lat": 50.521694,
      "lng": 30.238863,
      "city": "Kyiv",
      "city_uk": "Київ",
      "address": "",
      "website": "",
      "phone": "",
      "opening_hours": ""
    },
    {
      "osm_id": 4086450775,
      "osm_type": "node",
      "name": "ФітКервс",
      "name_uk": "ФітКервс",
      "name_en": "",
      "brand": "Fitness Club",
      "lat": 50.5060259,
      "lng": 30.7811666,
      "city": "Kyiv",
      "city_uk": "Київ",
      "address": "",
      "website": "",
      "phone": "",
      "opening_hours": ""
    },
    {
      "osm_id": 4090023630,
      "osm_type": "node",
      "name": "Олімп",
      "name_uk": "Олімп",
      "name_en": "",
      "brand": "Fitness Club",
      "lat": 50.3931282,
      "lng": 30.3704276,
      "city": "Kyiv",
      "city_uk": "Київ",
      "address": "",
      "website": "",
      "phone": "",
      "opening_hours": ""
    },
    {
      "osm_id": 4096967492,
      "osm_type": "node",
      "name": "Дельта",
      "name_uk": "Дельта",
      "name_en": "",
      "brand": "Fitness Club",
      "lat": 50.4364549,
      "lng": 30.4599691,
      "city": "Kyiv",
      "city_uk": "Київ",
      "address": "",
      "website": "",
      "phone": "",
      "opening_hours": ""
    },
    {
      "osm_id": 4097123561,
      "osm_type": "node",
      "name": "ФітКерс",
      "name_uk": "ФітКерс",
      "name_en": "",
      "brand": "Fitness Club",
      "lat": 50.3860146,
      "lng": 30.3673235,
      "city": "Kyiv",
      "city_uk": "Київ",
      "address": "",
      "website": "",
      "phone": "",
      "opening_hours": ""
    },
    {
      "osm_id": 4101789166,
      "osm_type": "node",
      "name": "Стимул",
      "name_uk": "Стимул",
      "name_en": "",
      "brand": "Fitness Club",
      "lat": 50.336537,
      "lng": 30.2781549,
      "city": "Kyiv",
      "city_uk": "Київ",
      "address": "Лінійна вулиця",
      "website": "",
      "phone": "",
      "opening_hours": ""
    },
    {
      "osm_id": 4109980589,
      "osm_type": "node",
      "name": "Sport Life",
      "name_uk": "Sport Life",
      "name_en": "Sport Life",
      "brand": "Sport Life",
      "lat": 50.421464,
      "lng": 30.553289,
      "city": "Kyiv",
      "city_uk": "Київ",
      "address": "Болсуновська вулиця",
      "website": "https://www.sportlife.ua/uk/clubs/kiev/druzhbynarodov",
      "phone": "",
      "opening_hours": "Mo-Fr 08:00-22:00; Sa,Su 09:00-20:00"
    },
    {
      "osm_id": 4121035508,
      "osm_type": "node",
      "name": "Боді флекс",
      "name_uk": "Боді флекс",
      "name_en": "",
      "brand": "Fitness Club",
      "lat": 50.5134584,
      "lng": 30.8303482,
      "city": "Kyiv",
      "city_uk": "Київ",
      "address": "",
      "website": "",
      "phone": "",
      "opening_hours": ""
    },
    {
      "osm_id": 4123054193,
      "osm_type": "node",
      "name": "Олімп",
      "name_uk": "Олімп",
      "name_en": "",
      "brand": "Fitness Club",
      "lat": 50.5184367,
      "lng": 30.8341519,
      "city": "Kyiv",
      "city_uk": "Київ",
      "address": "",
      "website": "",
      "phone": "",
      "opening_hours": ""
    },
    {
      "osm_id": 4138230408,
      "osm_type": "node",
      "name": "Euro gym",
      "name_uk": "Euro gym",
      "name_en": "",
      "brand": "Fitness Club",
      "lat": 50.3775719,
      "lng": 30.3798209,
      "city": "Kyiv",
      "city_uk": "Київ",
      "address": "",
      "website": "",
      "phone": "",
      "opening_hours": "Th; Fr-We 07:00-22:00"
    },
    {
      "osm_id": 4149182914,
      "osm_type": "node",
      "name": "sport&spa",
      "name_uk": "sport&spa",
      "name_en": "sport&spa",
      "brand": "Fitness Club",
      "lat": 50.4897971,
      "lng": 30.475505,
      "city": "Kyiv",
      "city_uk": "Київ",
      "address": "",
      "website": "https://sportandspa.com.ua/",
      "phone": "+380 44 597 1133",
      "opening_hours": "Mo-Fr 07:00-23:00; Sa-Su 08:00-22:00"
    },
    {
      "osm_id": 4211867789,
      "osm_type": "node",
      "name": "Fitroom фітнес",
      "name_uk": "Fitroom фітнес",
      "name_en": "Fitroom fitness",
      "brand": "Fitness Club",
      "lat": 50.4680213,
      "lng": 30.4306725,
      "city": "Kyiv",
      "city_uk": "Київ",
      "address": "вулиця Степана Руданського",
      "website": "https://www.fitroom.com.ua/",
      "phone": "+380 44 228 4760",
      "opening_hours": "Mo-Fr 09:00-22:00; Sa 09:00-13:00"
    },
    {
      "osm_id": 4223930286,
      "osm_type": "node",
      "name": "Федерація футболу м. Києва",
      "name_uk": "Федерація футболу м. Києва",
      "name_en": "",
      "brand": "Fitness Club",
      "lat": 50.449434,
      "lng": 30.448274,
      "city": "Kyiv",
      "city_uk": "Київ",
      "address": "вулиця Михайла Брайчевського",
      "website": "http://ffk.kiev.ua/",
      "phone": "",
      "opening_hours": ""
    },
    {
      "osm_id": 4231369690,
      "osm_type": "node",
      "name": "Sport Life",
      "name_uk": "Sport Life",
      "name_en": "Sport Life",
      "brand": "Sport Life",
      "lat": 50.4167145,
      "lng": 30.3954204,
      "city": "Kyiv",
      "city_uk": "Київ",
      "address": "",
      "website": "https://www.sportlife.ua/uk/clubs/kiev/borschagovka",
      "phone": "",
      "opening_hours": "Mo-Fr 07:00-23:00; Sa,Su 09:00-22:00"
    },
    {
      "osm_id": 4250318691,
      "osm_type": "node",
      "name": "Спортзал",
      "name_uk": "Спортзал",
      "name_en": "",
      "brand": "Fitness Club",
      "lat": 50.5276992,
      "lng": 30.5072308,
      "city": "Kyiv",
      "city_uk": "Київ",
      "address": "Північна вулиця",
      "website": "",
      "phone": "",
      "opening_hours": "Mo-Su 06:00-22:00"
    },
    {
      "osm_id": 4262798492,
      "osm_type": "node",
      "name": "Школа танцю DecaDance",
      "name_uk": "Школа танцю DecaDance",
      "name_en": "",
      "brand": "Fitness Club",
      "lat": 50.4416877,
      "lng": 30.5251425,
      "city": "Kyiv",
      "city_uk": "Київ",
      "address": "вулиця Дарвіна",
      "website": "www.decadance.kiev.ua",
      "phone": "+380 63 630 6699",
      "opening_hours": "Mo-Su 08:00-22:00"
    },
    {
      "osm_id": 4266315638,
      "osm_type": "node",
      "name": "FitCurves",
      "name_uk": "FitCurves",
      "name_en": "FitCurves",
      "brand": "FitCurves",
      "lat": 50.4474663,
      "lng": 30.5155263,
      "city": "Kyiv",
      "city_uk": "Київ",
      "address": "Володимирська вулиця",
      "website": "http://fitcurves.org.ua",
      "phone": "+380 44 569 5646;+380 66 106 7830;+380 63 390 0925;+380 68 002 6660",
      "opening_hours": "Mo-Fr 8:00-21:00; Sa 10:00-13:00"
    },
    {
      "osm_id": 4276756790,
      "osm_type": "node",
      "name": "СпортЛенд",
      "name_uk": "СпортЛенд",
      "name_en": "",
      "brand": "Fitness Club",
      "lat": 50.4055249,
      "lng": 30.6315698,
      "city": "Kyiv",
      "city_uk": "Київ",
      "address": "",
      "website": "https://sportlandclub.com.ua/",
      "phone": "+380 44 390 3390",
      "opening_hours": "Mo-Fr 07:00-23:00; Sa-Su 09:00-22:00"
    },
    {
      "osm_id": 4281868998,
      "osm_type": "node",
      "name": "DOG & Grand CrossFit",
      "name_uk": "DOG & Grand CrossFit",
      "name_en": "DOG & Grand CrossFit",
      "brand": "Fitness Club",
      "lat": 50.4880081,
      "lng": 30.4941536,
      "city": "Kyiv",
      "city_uk": "Київ",
      "address": "проспект Степана Бандери",
      "website": "https://dogsportclub.com.ua/",
      "phone": "+380 44 500 7070",
      "opening_hours": "Mo-Fr 07:00-22:00; Sa-Su 09:00-22:00"
    },
    {
      "osm_id": 4286099391,
      "osm_type": "node",
      "name": "TSARSKY City Resort",
      "name_uk": "Царський",
      "name_en": "Tsarsky City Resort",
      "brand": "Fitness Club",
      "lat": 50.4266807,
      "lng": 30.5438724,
      "city": "Kyiv",
      "city_uk": "Київ",
      "address": "Старонаводницька вулиця",
      "website": "https://www.tsarsky.com/",
      "phone": "+380 44 227 7799",
      "opening_hours": "Mo-Su 07:00-23:00"
    },
    {
      "osm_id": 4304702089,
      "osm_type": "node",
      "name": "Теннісні корти \"Маестро-спорт\"",
      "name_uk": "Тенісні корти \"Маестро-спорт\"",
      "name_en": "Tennis courts \"Maestro-sport\"",
      "brand": "Fitness Club",
      "lat": 50.4190156,
      "lng": 30.5544371,
      "city": "Kyiv",
      "city_uk": "Київ",
      "address": "Болсуновська вулиця",
      "website": "",
      "phone": "",
      "opening_hours": ""
    },
    {
      "osm_id": 4313284690,
      "osm_type": "node",
      "name": "Фитлайн",
      "name_uk": "Фитлайн",
      "name_en": "",
      "brand": "Fitness Club",
      "lat": 50.4525682,
      "lng": 30.3878073,
      "city": "Kyiv",
      "city_uk": "Київ",
      "address": "Святошинська вулиця",
      "website": "http://fitline.kiev.ua",
      "phone": "",
      "opening_hours": "Mo-Fr 07:00-22:00; Sa-Su 09:00-22:00"
    },
    {
      "osm_id": 4315791690,
      "osm_type": "node",
      "name": "Fitness-Life",
      "name_uk": "Fitness-Life",
      "name_en": "",
      "brand": "Fitness Club",
      "lat": 50.4150641,
      "lng": 30.4042034,
      "city": "Kyiv",
      "city_uk": "Київ",
      "address": "",
      "website": "https://fitnesslife.ua/",
      "phone": "",
      "opening_hours": "Mo-Fr 07:00-23:00; Sa-Su 09:00-21:00"
    },
    {
      "osm_id": 4348506191,
      "osm_type": "node",
      "name": "Kiev Yoga Studio",
      "name_uk": "Kiev Yoga Studio",
      "name_en": "",
      "brand": "Fitness Club",
      "lat": 50.4370595,
      "lng": 30.5134342,
      "city": "Kyiv",
      "city_uk": "Київ",
      "address": "",
      "website": "https://www.kievyogastudio.com/",
      "phone": "+380 95 272 9955",
      "opening_hours": "Mo-Su 07:00-22:00"
    },
    {
      "osm_id": 4382000789,
      "osm_type": "node",
      "name": "Мастер",
      "name_uk": "Мастер",
      "name_en": "",
      "brand": "Fitness Club",
      "lat": 50.4451308,
      "lng": 30.4931856,
      "city": "Kyiv",
      "city_uk": "Київ",
      "address": "",
      "website": "https://ttmaster.com.ua/",
      "phone": "+380 67 225 7255",
      "opening_hours": ""
    },
    {
      "osm_id": 4382300968,
      "osm_type": "node",
      "name": "АтлетиКо",
      "name_uk": "АтлетиКо",
      "name_en": "",
      "brand": "Fitness Club",
      "lat": 50.4260395,
      "lng": 30.6658687,
      "city": "Kyiv",
      "city_uk": "Київ",
      "address": "вулиця Юрія Литвинського",
      "website": "http://atletiko.kiev.ua/",
      "phone": "+380 67 238 9446",
      "opening_hours": "07:00-23:00"
    },
    {
      "osm_id": 4382320395,
      "osm_type": "node",
      "name": "АтлетіКо",
      "name_uk": "АтлетіКо",
      "name_en": "",
      "brand": "Fitness Club",
      "lat": 50.4260399,
      "lng": 30.6658396,
      "city": "Kyiv",
      "city_uk": "Київ",
      "address": "",
      "website": "",
      "phone": "+380 67 443 8001",
      "opening_hours": "Mo-Su 07:00-23:00"
    },
    {
      "osm_id": 4388020060,
      "osm_type": "node",
      "name": "Олімпійський стиль",
      "name_uk": "Олімпійський стиль",
      "name_en": "",
      "brand": "Fitness Club",
      "lat": 50.4314331,
      "lng": 30.5184303,
      "city": "Kyiv",
      "city_uk": "Київ",
      "address": "",
      "website": "https://olympicstyle.com.ua/",
      "phone": "+380 44 289 7395",
      "opening_hours": "07:00-22:00"
    },
    {
      "osm_id": 4398962300,
      "osm_type": "node",
      "name": "Басейн ДФОК «Зоряний» в Гімназії №178",
      "name_uk": "Басейн ДФОК «Зоряний» в Гімназії №178",
      "name_en": "",
      "brand": "Fitness Club",
      "lat": 50.436739,
      "lng": 30.4725207,
      "city": "Kyiv",
      "city_uk": "Київ",
      "address": "",
      "website": "",
      "phone": "",
      "opening_hours": ""
    },
    {
      "osm_id": 4422400290,
      "osm_type": "node",
      "name": "Sport Life",
      "name_uk": "Sport Life",
      "name_en": "Sport Life",
      "brand": "Sport Life",
      "lat": 50.456376,
      "lng": 30.6373357,
      "city": "Kyiv",
      "city_uk": "Київ",
      "address": "",
      "website": "https://www.sportlife.ua/uk/clubs/kiev/chernigovskaya",
      "phone": "",
      "opening_hours": "Mo-Fr 08:00-22:00; Sa,Su 09:00-20:00"
    },
    {
      "osm_id": 4422604091,
      "osm_type": "node",
      "name": "Ерікс",
      "name_uk": "Ерікс",
      "name_en": "Erix",
      "brand": "Fitness Club",
      "lat": 50.413282,
      "lng": 30.5494331,
      "city": "Kyiv",
      "city_uk": "Київ",
      "address": "вулиця Михайла Бойчука",
      "website": "https://erix.kiev.ua/",
      "phone": "+380 44 224 5735",
      "opening_hours": "Mo-Su 08:00-22:00"
    },
    {
      "osm_id": 4424531807,
      "osm_type": "node",
      "name": "FitCurves",
      "name_uk": "FitCurves",
      "name_en": "FitCurves",
      "brand": "FitCurves",
      "lat": 50.4251467,
      "lng": 30.3837437,
      "city": "Kyiv",
      "city_uk": "Київ",
      "address": "",
      "website": "",
      "phone": "",
      "opening_hours": ""
    },
    {
      "osm_id": 4426244709,
      "osm_type": "node",
      "name": "Sport Life Петропавлівська Борщагівка",
      "name_uk": "Спорт Лайф Петропавлівська Борщагівка",
      "name_en": "Sport Life Petropavlivska Borschahivka",
      "brand": "Sport Life",
      "lat": 50.4339036,
      "lng": 30.3301597,
      "city": "Kyiv",
      "city_uk": "Київ",
      "address": "Садова вулиця",
      "website": "https://www.sportlife.ua/uk/clubs/kiev/petropavlovskaia_borshchagovka",
      "phone": "",
      "opening_hours": "Mo-Fr 07:00-23:00; Sa,Su 09:00-22:00"
    },
    {
      "osm_id": 4464545589,
      "osm_type": "node",
      "name": "Спортзал",
      "name_uk": "Спортзал",
      "name_en": "",
      "brand": "Fitness Club",
      "lat": 50.6341442,
      "lng": 30.4368221,
      "city": "Kyiv",
      "city_uk": "Київ",
      "address": "",
      "website": "",
      "phone": "",
      "opening_hours": ""
    },
    {
      "osm_id": 4465197790,
      "osm_type": "node",
      "name": "Колізей",
      "name_uk": "Колізей",
      "name_en": "",
      "brand": "Fitness Club",
      "lat": 50.432086,
      "lng": 30.6341166,
      "city": "Kyiv",
      "city_uk": "Київ",
      "address": "",
      "website": "",
      "phone": "",
      "opening_hours": ""
    },
    {
      "osm_id": 4475929289,
      "osm_type": "node",
      "name": "Федерація Айкідо України",
      "name_uk": "Федерація Айкідо України",
      "name_en": "Makoto Dojo",
      "brand": "Fitness Club",
      "lat": 50.4224918,
      "lng": 30.5296409,
      "city": "Kyiv",
      "city_uk": "Київ",
      "address": "Новопечерський провулок",
      "website": "http://www.aikido-fau.org.ua/",
      "phone": "+380 95 428 1256",
      "opening_hours": ""
    },
    {
      "osm_id": 4542703064,
      "osm_type": "node",
      "name": "Stronger",
      "name_uk": "Stronger",
      "name_en": "",
      "brand": "Fitness Club",
      "lat": 50.3546698,
      "lng": 30.4810158,
      "city": "Kyiv",
      "city_uk": "Київ",
      "address": "вулиця Академіка Заболотного",
      "website": "https://www.facebook.com/strongergymkiev/",
      "phone": "",
      "opening_hours": ""
    },
    {
      "osm_id": 4542714890,
      "osm_type": "node",
      "name": "Семспорт",
      "name_uk": "Семспорт",
      "name_en": "",
      "brand": "Fitness Club",
      "lat": 50.5018272,
      "lng": 30.4343961,
      "city": "Kyiv",
      "city_uk": "Київ",
      "address": "",
      "website": "https://semsport.com.ua/",
      "phone": "+380 98 783 1434;+380 95 803 4619;+380 93 279 6390",
      "opening_hours": "Mo-Fr 08:00-22:00, Sa-Su 09:00-18:00"
    },
    {
      "osm_id": 4555418928,
      "osm_type": "node",
      "name": "Малібу",
      "name_uk": "Малібу",
      "name_en": "",
      "brand": "Fitness Club",
      "lat": 50.4321607,
      "lng": 30.3855969,
      "city": "Kyiv",
      "city_uk": "Київ",
      "address": "вулиця Гната Юри",
      "website": "www.malibu-sport.com.ua",
      "phone": "",
      "opening_hours": "09:00-23:00"
    },
    {
      "osm_id": 4557079290,
      "osm_type": "node",
      "name": "Crystal Fitness",
      "name_uk": "Crystal Fitness",
      "name_en": "",
      "brand": "Fitness Club",
      "lat": 50.4034527,
      "lng": 30.5319614,
      "city": "Kyiv",
      "city_uk": "Київ",
      "address": "Феодосійський провулок",
      "website": "",
      "phone": "",
      "opening_hours": "Mo-Su 10:00-23:00"
    },
    {
      "osm_id": 4590389550,
      "osm_type": "node",
      "name": "Only You",
      "name_uk": "Only You",
      "name_en": "",
      "brand": "Fitness Club",
      "lat": 50.4517237,
      "lng": 30.3764013,
      "city": "Kyiv",
      "city_uk": "Київ",
      "address": "",
      "website": "",
      "phone": "",
      "opening_hours": ""
    },
    {
      "osm_id": 4603016230,
      "osm_type": "node",
      "name": "Спорт школа",
      "name_uk": "Спорт школа",
      "name_en": "",
      "brand": "Fitness Club",
      "lat": 50.3362567,
      "lng": 30.2829012,
      "city": "Kyiv",
      "city_uk": "Київ",
      "address": "",
      "website": "",
      "phone": "",
      "opening_hours": ""
    },
    {
      "osm_id": 4603527864,
      "osm_type": "node",
      "name": "Спорт Зал",
      "name_uk": "Спорт Зал",
      "name_en": "",
      "brand": "Fitness Club",
      "lat": 50.3368036,
      "lng": 30.2824505,
      "city": "Kyiv",
      "city_uk": "Київ",
      "address": "Молодіжна вулиця",
      "website": "",
      "phone": "",
      "opening_hours": ""
    },
    {
      "osm_id": 4610388989,
      "osm_type": "node",
      "name": "Розтруси",
      "name_uk": "Розтруси",
      "name_en": "",
      "brand": "Fitness Club",
      "lat": 50.4071811,
      "lng": 30.6498428,
      "city": "Kyiv",
      "city_uk": "Київ",
      "address": "",
      "website": "",
      "phone": "",
      "opening_hours": "PH,Mo-Su 07:00-23:00"
    },
    {
      "osm_id": 4616393665,
      "osm_type": "node",
      "name": "Fit Curves",
      "name_uk": "Fit Curves",
      "name_en": "",
      "brand": "Fit Curves",
      "lat": 50.4720942,
      "lng": 30.3376708,
      "city": "Kyiv",
      "city_uk": "Київ",
      "address": "",
      "website": "",
      "phone": "",
      "opening_hours": ""
    },
    {
      "osm_id": 4682462395,
      "osm_type": "node",
      "name": "ЖК Талiсман",
      "name_uk": "ЖК Талiсман",
      "name_en": "",
      "brand": "Fitness Club",
      "lat": 50.5148874,
      "lng": 30.2158013,
      "city": "Kyiv",
      "city_uk": "Київ",
      "address": "",
      "website": "",
      "phone": "",
      "opening_hours": ""
    },
    {
      "osm_id": 4687097990,
      "osm_type": "node",
      "name": "Махлая",
      "name_uk": "Махлая",
      "name_en": "",
      "brand": "Fitness Club",
      "lat": 50.5162949,
      "lng": 30.2304631,
      "city": "Kyiv",
      "city_uk": "Київ",
      "address": "",
      "website": "",
      "phone": "",
      "opening_hours": ""
    },
    {
      "osm_id": 4696976296,
      "osm_type": "node",
      "name": "Sport Life",
      "name_uk": "Sport Life",
      "name_en": "Sport Life",
      "brand": "Sport Life",
      "lat": 50.4352573,
      "lng": 30.5447209,
      "city": "Kyiv",
      "city_uk": "Київ",
      "address": "",
      "website": "https://www.sportlife.ua/uk/clubs/kiev/arsenalnaia",
      "phone": "+380 44 364 4528",
      "opening_hours": "Mo-Fr 08:00-22:00; Sa,Su 09:00-20:00"
    },
    {
      "osm_id": 4704548432,
      "osm_type": "node",
      "name": "Качалка",
      "name_uk": "Качалка",
      "name_en": "",
      "brand": "Fitness Club",
      "lat": 50.5515486,
      "lng": 30.2054838,
      "city": "Kyiv",
      "city_uk": "Київ",
      "address": "",
      "website": "",
      "phone": "",
      "opening_hours": ""
    },
    {
      "osm_id": 4714186540,
      "osm_type": "node",
      "name": "Спорт для всіх",
      "name_uk": "Спорт для всіх",
      "name_en": "",
      "brand": "Fitness Club",
      "lat": 50.5219457,
      "lng": 30.2421205,
      "city": "Kyiv",
      "city_uk": "Київ",
      "address": "",
      "website": "",
      "phone": "",
      "opening_hours": ""
    },
    {
      "osm_id": 4715858103,
      "osm_type": "node",
      "name": "Фітнес Кервс",
      "name_uk": "Фітнес Кервс",
      "name_en": "",
      "brand": "Fitness Club",
      "lat": 50.5221953,
      "lng": 30.2491294,
      "city": "Kyiv",
      "city_uk": "Київ",
      "address": "",
      "website": "",
      "phone": "",
      "opening_hours": ""
    },
    {
      "osm_id": 4716702434,
      "osm_type": "node",
      "name": "Моушен",
      "name_uk": "Моушен",
      "name_en": "Motion",
      "brand": "Fitness Club",
      "lat": 50.5084749,
      "lng": 30.2367129,
      "city": "Kyiv",
      "city_uk": "Київ",
      "address": "Лісова вулиця",
      "website": "",
      "phone": "",
      "opening_hours": ""
    },
    {
      "osm_id": 4717654841,
      "osm_type": "node",
      "name": "Ентузіаст",
      "name_uk": "Ентузіаст",
      "name_en": "",
      "brand": "Fitness Club",
      "lat": 50.5216089,
      "lng": 30.2212466,
      "city": "Kyiv",
      "city_uk": "Київ",
      "address": "Садова вулиця",
      "website": "",
      "phone": "",
      "opening_hours": ""
    },
    {
      "osm_id": 4717663592,
      "osm_type": "node",
      "name": "Екшн",
      "name_uk": "Екшн",
      "name_en": "",
      "brand": "Fitness Club",
      "lat": 50.5283534,
      "lng": 30.2307523,
      "city": "Kyiv",
      "city_uk": "Київ",
      "address": "Українська вулиця",
      "website": "",
      "phone": "",
      "opening_hours": ""
    },
    {
      "osm_id": 4717666742,
      "osm_type": "node",
      "name": "Енерджи",
      "name_uk": "Енерджи",
      "name_en": "",
      "brand": "Fitness Club",
      "lat": 50.5527915,
      "lng": 30.207988,
      "city": "Kyiv",
      "city_uk": "Київ",
      "address": "",
      "website": "",
      "phone": "",
      "opening_hours": ""
    },
    {
      "osm_id": 4721276538,
      "osm_type": "node",
      "name": "Енерго",
      "name_uk": "Енерго",
      "name_en": "",
      "brand": "Fitness Club",
      "lat": 50.5074073,
      "lng": 30.7798126,
      "city": "Kyiv",
      "city_uk": "Київ",
      "address": "",
      "website": "",
      "phone": "",
      "opening_hours": ""
    },
    {
      "osm_id": 4724040073,
      "osm_type": "node",
      "name": "Центр олімпійської підготовки",
      "name_uk": "Центр олімпійської підготовки",
      "name_en": "",
      "brand": "Fitness Club",
      "lat": 50.5068109,
      "lng": 30.7933675,
      "city": "Kyiv",
      "city_uk": "Київ",
      "address": "",
      "website": "",
      "phone": "",
      "opening_hours": ""
    },
    {
      "osm_id": 4730508519,
      "osm_type": "node",
      "name": "Качалочка",
      "name_uk": "Качалочка",
      "name_en": "",
      "brand": "Fitness Club",
      "lat": 50.5045081,
      "lng": 30.7816948,
      "city": "Kyiv",
      "city_uk": "Київ",
      "address": "",
      "website": "",
      "phone": "",
      "opening_hours": ""
    },
    {
      "osm_id": 4742996422,
      "osm_type": "node",
      "name": "СпортЛенд",
      "name_uk": "СпортЛенд",
      "name_en": "SportLand",
      "brand": "Fitness Club",
      "lat": 50.4850838,
      "lng": 30.5955992,
      "city": "Kyiv",
      "city_uk": "Київ",
      "address": "",
      "website": "",
      "phone": "",
      "opening_hours": ""
    },
    {
      "osm_id": 4746690137,
      "osm_type": "node",
      "name": "Всі Свої",
      "name_uk": "Всі Свої",
      "name_en": "",
      "brand": "Fitness Club",
      "lat": 50.5111286,
      "lng": 30.5120876,
      "city": "Kyiv",
      "city_uk": "Київ",
      "address": "",
      "website": "",
      "phone": "",
      "opening_hours": ""
    },
    {
      "osm_id": 4792438634,
      "osm_type": "node",
      "name": "Алабама",
      "name_uk": "Алабама",
      "name_en": "",
      "brand": "Fitness Club",
      "lat": 50.4545938,
      "lng": 30.7616615,
      "city": "Kyiv",
      "city_uk": "Київ",
      "address": "",
      "website": "",
      "phone": "",
      "opening_hours": ""
    },
    {
      "osm_id": 4870702184,
      "osm_type": "node",
      "name": "Zeus sport club",
      "name_uk": "Zeus sport club",
      "name_en": "Zeus sport club",
      "brand": "Sport Club",
      "lat": 50.457635,
      "lng": 30.4287048,
      "city": "Kyiv",
      "city_uk": "Київ",
      "address": "",
      "website": "",
      "phone": "",
      "opening_hours": ""
    },
    {
      "osm_id": 4870753412,
      "osm_type": "node",
      "name": "Curves",
      "name_uk": "Curves",
      "name_en": "",
      "brand": "Fitness Club",
      "lat": 50.4787507,
      "lng": 30.598332,
      "city": "Kyiv",
      "city_uk": "Київ",
      "address": "",
      "website": "",
      "phone": "",
      "opening_hours": ""
    },
    {
      "osm_id": 4872965067,
      "osm_type": "node",
      "name": "блі для дому",
      "name_uk": "блі для дому",
      "name_en": "",
      "brand": "Fitness Club",
      "lat": 50.5015113,
      "lng": 30.5930708,
      "city": "Kyiv",
      "city_uk": "Київ",
      "address": "",
      "website": "",
      "phone": "",
      "opening_hours": ""
    },
    {
      "osm_id": 4876746576,
      "osm_type": "node",
      "name": "Maxim",
      "name_uk": "Maxim",
      "name_en": "",
      "brand": "Fitness Club",
      "lat": 50.3760982,
      "lng": 30.6062761,
      "city": "Kyiv",
      "city_uk": "Київ",
      "address": "",
      "website": "",
      "phone": "",
      "opening_hours": ""
    },
    {
      "osm_id": 4880278808,
      "osm_type": "node",
      "name": "Move",
      "name_uk": "Move",
      "name_en": "",
      "brand": "Fitness Club",
      "lat": 50.3882953,
      "lng": 30.4655262,
      "city": "Kyiv",
      "city_uk": "Київ",
      "address": "",
      "website": "https://moveclub.com.ua/",
      "phone": "",
      "opening_hours": "Mo-Fr 08:00-21:00;Sa-Su 11:00-21:00"
    },
    {
      "osm_id": 4915391656,
      "osm_type": "node",
      "name": "Gym Fit",
      "name_uk": "Gym Fit",
      "name_en": "Gym Fit",
      "brand": "Fitness Club",
      "lat": 50.4466407,
      "lng": 30.4308939,
      "city": "Kyiv",
      "city_uk": "Київ",
      "address": "",
      "website": "",
      "phone": "",
      "opening_hours": "mo-fr 07:00-22:00, sa-su 09:00-21:00"
    },
    {
      "osm_id": 4927867459,
      "osm_type": "node",
      "name": "LadyGYM",
      "name_uk": "LadyGYM",
      "name_en": "",
      "brand": "Fitness Club",
      "lat": 50.4059308,
      "lng": 30.3365327,
      "city": "Kyiv",
      "city_uk": "Київ",
      "address": "вулиця Сагайдачного",
      "website": "",
      "phone": "",
      "opening_hours": "Mo-Su 07:00-22:00"
    },
    {
      "osm_id": 4929430039,
      "osm_type": "node",
      "name": "EveryDay fitness",
      "name_uk": "EveryDay fitness",
      "name_en": "",
      "brand": "Fitness Club",
      "lat": 50.4309892,
      "lng": 30.3575813,
      "city": "Kyiv",
      "city_uk": "Київ",
      "address": "",
      "website": "https://everydayfitness.com.ua/",
      "phone": "",
      "opening_hours": "Mo-Fr 07:00-23:00; Sa-Su 09:00-22:00"
    },
    {
      "osm_id": 4945450412,
      "osm_type": "node",
      "name": "Climbing gym up",
      "name_uk": "Climbing gym up",
      "name_en": "",
      "brand": "Fitness Club",
      "lat": 50.4000416,
      "lng": 30.5143046,
      "city": "Kyiv",
      "city_uk": "Київ",
      "address": "",
      "website": "",
      "phone": "",
      "opening_hours": ""
    },
    {
      "osm_id": 4977320525,
      "osm_type": "node",
      "name": "АтлетіКо",
      "name_uk": "АтлетіКо",
      "name_en": "",
      "brand": "Fitness Club",
      "lat": 50.4523232,
      "lng": 30.5022216,
      "city": "Kyiv",
      "city_uk": "Київ",
      "address": "Бульварно-Кудрявська вулиця",
      "website": "https://atletiko.club/",
      "phone": "+380 67 538 0069",
      "opening_hours": "Mo-Su 06:00-23:00"
    },
    {
      "osm_id": 5010929924,
      "osm_type": "node",
      "name": "Jumping Hall",
      "name_uk": "Jumping Hall",
      "name_en": "",
      "brand": "Fitness Club",
      "lat": 50.4554721,
      "lng": 30.4198204,
      "city": "Kyiv",
      "city_uk": "Київ",
      "address": "вулиця Миколи Василенка",
      "website": "https://www.jumpinghall.com/",
      "phone": "+380 67 917 2366",
      "opening_hours": "Mo-Su 08:00-22:00"
    },
    {
      "osm_id": 5014956722,
      "osm_type": "node",
      "name": "Спортивний майданчик",
      "name_uk": "Спортивний майданчик",
      "name_en": "",
      "brand": "Fitness Club",
      "lat": 50.4053603,
      "lng": 30.6355003,
      "city": "Kyiv",
      "city_uk": "Київ",
      "address": "",
      "website": "",
      "phone": "",
      "opening_hours": ""
    },
    {
      "osm_id": 5082531168,
      "osm_type": "node",
      "name": "SkyPark",
      "name_uk": "Мотузковий парк SkyPark",
      "name_en": "Adventure park SkyPark",
      "brand": "Fitness Club",
      "lat": 50.5166271,
      "lng": 30.4190426,
      "city": "Kyiv",
      "city_uk": "Київ",
      "address": "",
      "website": "https://skypark.com.ua/",
      "phone": "",
      "opening_hours": ""
    },
    {
      "osm_id": 5100300257,
      "osm_type": "node",
      "name": "Бульдог",
      "name_uk": "Бульдог",
      "name_en": "Bulldog",
      "brand": "Fitness Club",
      "lat": 50.3938239,
      "lng": 30.621292,
      "city": "Kyiv",
      "city_uk": "Київ",
      "address": "вулиця Єлизавети Чавдар",
      "website": "",
      "phone": "",
      "opening_hours": ""
    },
    {
      "osm_id": 5104640622,
      "osm_type": "node",
      "name": "Графіт",
      "name_uk": "Графіт",
      "name_en": "GraFit",
      "brand": "Fitness Club",
      "lat": 50.4544091,
      "lng": 30.5979205,
      "city": "Kyiv",
      "city_uk": "Київ",
      "address": "",
      "website": "",
      "phone": "",
      "opening_hours": ""
    },
    {
      "osm_id": 5113508021,
      "osm_type": "node",
      "name": "Фітнес клуб СпортСтар",
      "name_uk": "Фітнес клуб СпортСтар",
      "name_en": "Fitness club SportStar",
      "brand": "Fitness Club",
      "lat": 50.4356575,
      "lng": 30.3808756,
      "city": "Kyiv",
      "city_uk": "Київ",
      "address": "",
      "website": "https://sport-star.kiev.ua/",
      "phone": "+380 44 227 0550",
      "opening_hours": "Mo-Su 07:00-23:00"
    },
    {
      "osm_id": 5197543521,
      "osm_type": "node",
      "name": "Технофіт",
      "name_uk": "Технофіт",
      "name_en": "Technofit",
      "brand": "Fitness Club",
      "lat": 50.5808811,
      "lng": 30.481121,
      "city": "Kyiv",
      "city_uk": "Київ",
      "address": "",
      "website": "http://www.technofit.kiev.ua/",
      "phone": "+380 50 468 3468",
      "opening_hours": "Mo-Su 09:00-21:00"
    },
    {
      "osm_id": 5226156323,
      "osm_type": "node",
      "name": "Muscle Gym",
      "name_uk": "Muscle Gym",
      "name_en": "",
      "brand": "Fitness Club",
      "lat": 50.4240211,
      "lng": 30.4463503,
      "city": "Kyiv",
      "city_uk": "Київ",
      "address": "",
      "website": "",
      "phone": "",
      "opening_hours": "Mo-Fr 07:00-22:00; Sa, Su 08:00-21:00"
    },
    {
      "osm_id": 5235463823,
      "osm_type": "node",
      "name": "Роллер школа «Старт»",
      "name_uk": "Роллер школа «Старт»",
      "name_en": "Rollerschool «Start»",
      "brand": "Fitness Club",
      "lat": 50.4487739,
      "lng": 30.6043857,
      "city": "Kyiv",
      "city_uk": "Київ",
      "address": "вулиця Євгена Сверстюка",
      "website": "",
      "phone": "+380 96 132 1085",
      "opening_hours": "We,Sa-Su 15:30-17:30"
    },
    {
      "osm_id": 5235526924,
      "osm_type": "node",
      "name": "Рай",
      "name_uk": "Рай",
      "name_en": "Heaven",
      "brand": "Fitness Club",
      "lat": 50.4436876,
      "lng": 30.631028,
      "city": "Kyiv",
      "city_uk": "Київ",
      "address": "",
      "website": "https://poleheaven.com.ua/",
      "phone": "+380 73 100 0860",
      "opening_hours": "Mo-Su 07:30-23:00"
    },
    {
      "osm_id": 5235526925,
      "osm_type": "node",
      "name": "Heaven Pole Dance",
      "name_uk": "Heaven Pole Dance",
      "name_en": "Heaven Pole Dance",
      "brand": "Fitness Club",
      "lat": 50.462509,
      "lng": 30.5231378,
      "city": "Kyiv",
      "city_uk": "Київ",
      "address": "Братська вулиця",
      "website": "https://poleheaven.com.ua/",
      "phone": "+380 63 727 0779",
      "opening_hours": "Mo-Su 07:30-22:30"
    },
    {
      "osm_id": 5257535837,
      "osm_type": "node",
      "name": "Бойова жаба",
      "name_uk": "Бойова жаба",
      "name_en": "",
      "brand": "Fitness Club",
      "lat": 50.5154993,
      "lng": 30.2556966,
      "city": "Kyiv",
      "city_uk": "Київ",
      "address": "",
      "website": "https://www.zhaba-cf.com.ua",
      "phone": "+380 73 090 5073;+380 98 005 8460",
      "opening_hours": ""
    },
    {
      "osm_id": 5304683922,
      "osm_type": "node",
      "name": "Аеліта",
      "name_uk": "Аеліта",
      "name_en": "",
      "brand": "Fitness Club",
      "lat": 50.5175364,
      "lng": 30.5112056,
      "city": "Kyiv",
      "city_uk": "Київ",
      "address": "",
      "website": "",
      "phone": "",
      "opening_hours": ""
    },
    {
      "osm_id": 5304784406,
      "osm_type": "node",
      "name": "Stimul",
      "name_uk": "Stimul",
      "name_en": "",
      "brand": "Fitness Club",
      "lat": 50.5072397,
      "lng": 30.2336872,
      "city": "Kyiv",
      "city_uk": "Київ",
      "address": "",
      "website": "",
      "phone": "",
      "opening_hours": ""
    },
    {
      "osm_id": 5319690877,
      "osm_type": "node",
      "name": "АтлетіКо",
      "name_uk": "АтлетіКо",
      "name_en": "",
      "brand": "Fitness Club",
      "lat": 50.4635211,
      "lng": 30.5250859,
      "city": "Kyiv",
      "city_uk": "Київ",
      "address": "Набережно-Хрещатицька вулиця",
      "website": "",
      "phone": "",
      "opening_hours": ""
    },
    {
      "osm_id": 5323966623,
      "osm_type": "node",
      "name": "Фемелі енержі",
      "name_uk": "Фемелі енержі",
      "name_en": "Female energy",
      "brand": "Fitness Club",
      "lat": 50.4284617,
      "lng": 30.6041488,
      "city": "Kyiv",
      "city_uk": "Київ",
      "address": "проспект Павла Тичини",
      "website": "",
      "phone": "",
      "opening_hours": "Mo-Su 08:00-21:00"
    },
    {
      "osm_id": 5390112295,
      "osm_type": "node",
      "name": "Ібіс",
      "name_uk": "Ібіс",
      "name_en": "IBIS",
      "brand": "Fitness Club",
      "lat": 50.4396616,
      "lng": 30.4479328,
      "city": "Kyiv",
      "city_uk": "Київ",
      "address": "",
      "website": "https://ibis-club.com.ua/",
      "phone": "+380 44 455 7170",
      "opening_hours": "Mo-Sa 10:00-20:00; Su 10:00-19:00"
    },
    {
      "osm_id": 5434668721,
      "osm_type": "node",
      "name": "Energy Gym",
      "name_uk": "Energy Gym",
      "name_en": "Energy Gym",
      "brand": "Fitness Club",
      "lat": 50.411192,
      "lng": 30.6141077,
      "city": "Kyiv",
      "city_uk": "Київ",
      "address": "",
      "website": "",
      "phone": "",
      "opening_hours": ""
    },
    {
      "osm_id": 5455230721,
      "osm_type": "node",
      "name": "Твоя Йога Студiя",
      "name_uk": "Твоя Йога Студiя",
      "name_en": "Your Yoga Studio",
      "brand": "Fitness Club",
      "lat": 50.4551279,
      "lng": 30.360582,
      "city": "Kyiv",
      "city_uk": "Київ",
      "address": "",
      "website": "",
      "phone": "",
      "opening_hours": ""
    },
    {
      "osm_id": 5530608421,
      "osm_type": "node",
      "name": "Зал для стрибків",
      "name_uk": "Зал для стрибків",
      "name_en": "Jumping Hall",
      "brand": "Fitness Club",
      "lat": 50.4317188,
      "lng": 30.6341546,
      "city": "Kyiv",
      "city_uk": "Київ",
      "address": "",
      "website": "http://Jumpinghall.com",
      "phone": "+380 67 917 2366",
      "opening_hours": "Mo-Sa 10:00-22:00; Su 10:00-21:00"
    },
    {
      "osm_id": 5538066925,
      "osm_type": "node",
      "name": "Seven",
      "name_uk": "Seven",
      "name_en": "",
      "brand": "Fitness Club",
      "lat": 50.434123,
      "lng": 30.3211876,
      "city": "Kyiv",
      "city_uk": "Київ",
      "address": "",
      "website": "",
      "phone": "",
      "opening_hours": ""
    },
    {
      "osm_id": 5583889896,
      "osm_type": "node",
      "name": "Crossfit Banda II Арена",
      "name_uk": "Crossfit Banda II Арена",
      "name_en": "",
      "brand": "Fitness Club",
      "lat": 50.4222904,
      "lng": 30.5293837,
      "city": "Kyiv",
      "city_uk": "Київ",
      "address": "Новопечерський провулок",
      "website": "https://crossfitbanda.com/",
      "phone": "+380 93 999 8899",
      "opening_hours": ""
    },
    {
      "osm_id": 5636742431,
      "osm_type": "node",
      "name": "Grand Sport",
      "name_uk": "Grand Sport",
      "name_en": "",
      "brand": "Fitness Club",
      "lat": 50.4566659,
      "lng": 30.6318284,
      "city": "Kyiv",
      "city_uk": "Київ",
      "address": "вулиця Гната Хоткевича",
      "website": "https://grand-sport.kiev.ua/",
      "phone": "+380 63 968 3838",
      "opening_hours": "Mo-Fr 07:00-22:00; Sa 10:00-21:00; Su 12:00-20:00"
    },
    {
      "osm_id": 5658886521,
      "osm_type": "node",
      "name": "Тренування на роликах",
      "name_uk": "Тренування на роликах",
      "name_en": "Rollerblading training",
      "brand": "Fitness Club",
      "lat": 50.3869613,
      "lng": 30.6251065,
      "city": "Kyiv",
      "city_uk": "Київ",
      "address": "вулиця Єлизавети Чавдар",
      "website": "https://m.facebook.com/roller.club.kiev",
      "phone": "+380 67 811 4133",
      "opening_hours": ""
    },
    {
      "osm_id": 5658941928,
      "osm_type": "node",
      "name": "Тренування на роликах",
      "name_uk": "Тренування на роликах",
      "name_en": "Rollerblading training",
      "brand": "Fitness Club",
      "lat": 50.4594552,
      "lng": 30.6034182,
      "city": "Kyiv",
      "city_uk": "Київ",
      "address": "проспект Георгія Нарбута",
      "website": "http://startroller.club",
      "phone": "+380 96 132 1085",
      "opening_hours": ""
    },
    {
      "osm_id": 5658941929,
      "osm_type": "node",
      "name": "Тренування на роликах",
      "name_uk": "Тренування на роликах",
      "name_en": "Rollerblading training",
      "brand": "Fitness Club",
      "lat": 50.4681414,
      "lng": 30.6034857,
      "city": "Kyiv",
      "city_uk": "Київ",
      "address": "Воскресенська вулиця",
      "website": "http://startroller.club",
      "phone": "+380 96 132 1085",
      "opening_hours": ""
    },
    {
      "osm_id": 5658974421,
      "osm_type": "node",
      "name": "Тренування на роликах",
      "name_uk": "Тренування на роликах",
      "name_en": "Rollerblading training",
      "brand": "Fitness Club",
      "lat": 50.4847285,
      "lng": 30.5949129,
      "city": "Kyiv",
      "city_uk": "Київ",
      "address": "",
      "website": "http://startroller.club",
      "phone": "+380 96 132 1085",
      "opening_hours": ""
    },
    {
      "osm_id": 5680444722,
      "osm_type": "node",
      "name": "Fit Curves",
      "name_uk": "Fit Curves",
      "name_en": "Fit Curves",
      "brand": "Fit Curves",
      "lat": 50.4775659,
      "lng": 30.4021488,
      "city": "Kyiv",
      "city_uk": "Київ",
      "address": "",
      "website": "",
      "phone": "",
      "opening_hours": ""
    },
    {
      "osm_id": 5784369884,
      "osm_type": "node",
      "name": "Малібу",
      "name_uk": "Малібу",
      "name_en": "",
      "brand": "Fitness Club",
      "lat": 50.4533042,
      "lng": 30.6233965,
      "city": "Kyiv",
      "city_uk": "Київ",
      "address": "",
      "website": "",
      "phone": "",
      "opening_hours": ""
    },
    {
      "osm_id": 5803034108,
      "osm_type": "node",
      "name": "Poison",
      "name_uk": "Poison",
      "name_en": "",
      "brand": "Fitness Club",
      "lat": 50.4561241,
      "lng": 30.3958938,
      "city": "Kyiv",
      "city_uk": "Київ",
      "address": "",
      "website": "www.poison-fight.com.ua",
      "phone": "",
      "opening_hours": ""
    },
    {
      "osm_id": 5877921350,
      "osm_type": "node",
      "name": "СпортЛайф",
      "name_uk": "СпортЛайф",
      "name_en": "",
      "brand": "Fitness Club",
      "lat": 50.2234627,
      "lng": 30.645984,
      "city": "Kyiv",
      "city_uk": "Київ",
      "address": "Старообухівська траса",
      "website": "",
      "phone": "",
      "opening_hours": ""
    },
    {
      "osm_id": 5879083740,
      "osm_type": "node",
      "name": "CrossFit Banda",
      "name_uk": "CrossFit Banda",
      "name_en": "CrossFit Banda",
      "brand": "Fitness Club",
      "lat": 50.5009574,
      "lng": 30.5010977,
      "city": "Kyiv",
      "city_uk": "Київ",
      "address": "",
      "website": "https://crossfitbanda.com/obolon",
      "phone": "",
      "opening_hours": ""
    },
    {
      "osm_id": 5901221305,
      "osm_type": "node",
      "name": "ДЮСШ Юний спартаківець",
      "name_uk": "ДЮСШ Юний спартаківець",
      "name_en": "",
      "brand": "Fitness Club",
      "lat": 50.5029707,
      "lng": 30.5072804,
      "city": "Kyiv",
      "city_uk": "Київ",
      "address": "",
      "website": "",
      "phone": "",
      "opening_hours": ""
    },
    {
      "osm_id": 5910550650,
      "osm_type": "node",
      "name": "Sport Life",
      "name_uk": "Спорт Лайф Печерськ",
      "name_en": "Sport Life Pechersk",
      "brand": "Sport Life",
      "lat": 50.4071791,
      "lng": 30.5553111,
      "city": "Kyiv",
      "city_uk": "Київ",
      "address": "Звіринецька вулиця",
      "website": "https://www.sportlife.ua/uk/clubs/kiev/pechersk",
      "phone": "",
      "opening_hours": "Mo-Fr 07:00-23:00; Sa,Su 09:00-22:00"
    },
    {
      "osm_id": 5910550652,
      "osm_type": "node",
      "name": "Sport Life Лесі Українки",
      "name_uk": "Спорт Лайф Лесі Українки",
      "name_en": "Sport Life Lesi Ukrainky",
      "brand": "Sport Life",
      "lat": 50.4377606,
      "lng": 30.5273433,
      "city": "Kyiv",
      "city_uk": "Київ",
      "address": "вулиця Мечникова",
      "website": "https://www.sportlife.ua/uk/clubs/kiev/lesi_ukrainki",
      "phone": "",
      "opening_hours": "Mo-Fr 07:00-23:00; Sa,Su 09:00-22:00"
    },
    {
      "osm_id": 5911612794,
      "osm_type": "node",
      "name": "Sparta Box",
      "name_uk": "Sparta Box",
      "name_en": "Sparta Box",
      "brand": "Fitness Club",
      "lat": 50.4657357,
      "lng": 30.5126095,
      "city": "Kyiv",
      "city_uk": "Київ",
      "address": "",
      "website": "",
      "phone": "",
      "opening_hours": ""
    },
    {
      "osm_id": 5979156737,
      "osm_type": "node",
      "name": "Студія пілатесу Fitness4You",
      "name_uk": "Студія пілатесу Fitness4You",
      "name_en": "",
      "brand": "Fitness Club",
      "lat": 50.4232425,
      "lng": 30.5138023,
      "city": "Kyiv",
      "city_uk": "Київ",
      "address": "",
      "website": "http://www.fitness4you.ua/",
      "phone": "",
      "opening_hours": ""
    },
    {
      "osm_id": 6020393536,
      "osm_type": "node",
      "name": "Sport Life Гатне",
      "name_uk": "Спорт Лайф Гатне",
      "name_en": "Sport Life Gatne",
      "brand": "Sport Life",
      "lat": 50.3541083,
      "lng": 30.4320216,
      "city": "Kyiv",
      "city_uk": "Київ",
      "address": "",
      "website": "https://www.sportlife.ua/uk/clubs/kiev/gatnoe",
      "phone": "",
      "opening_hours": "Mo-Fr 07:00-23:00; Sa,Su 09:00-22:00"
    },
    {
      "osm_id": 6155823302,
      "osm_type": "node",
      "name": "АвтоФітнес",
      "name_uk": "АвтоФітнес",
      "name_en": "",
      "brand": "Fitness Club",
      "lat": 50.4392224,
      "lng": 30.2850022,
      "city": "Kyiv",
      "city_uk": "Київ",
      "address": "",
      "website": "",
      "phone": "",
      "opening_hours": ""
    },
    {
      "osm_id": 6185388986,
      "osm_type": "node",
      "name": "Атлетико",
      "name_uk": "Атлетико",
      "name_en": "",
      "brand": "Fitness Club",
      "lat": 50.5095102,
      "lng": 30.6082728,
      "city": "Kyiv",
      "city_uk": "Київ",
      "address": "",
      "website": "",
      "phone": "",
      "opening_hours": ""
    },
    {
      "osm_id": 6195547385,
      "osm_type": "node",
      "name": "Олімп",
      "name_uk": "Олімп",
      "name_en": "olymp",
      "brand": "Fitness Club",
      "lat": 50.4546655,
      "lng": 30.4004595,
      "city": "Kyiv",
      "city_uk": "Київ",
      "address": "вулиця Рене Декарта",
      "website": "https://www.fitness-olimp.kiev.ua/",
      "phone": "+380 44 503 7218",
      "opening_hours": "Mo-Su 07:00-22:45"
    },
    {
      "osm_id": 6331352486,
      "osm_type": "node",
      "name": "ЕБШ",
      "name_uk": "ЕБШ",
      "name_en": "EBSh",
      "brand": "Fitness Club",
      "lat": 50.4597956,
      "lng": 30.5118201,
      "city": "Kyiv",
      "city_uk": "Київ",
      "address": "",
      "website": "https://ebsh.ua/",
      "phone": "+380 68 383 8381",
      "opening_hours": ""
    },
    {
      "osm_id": 6399650764,
      "osm_type": "node",
      "name": "Ірбіс",
      "name_uk": "Ірбіс",
      "name_en": "",
      "brand": "Fitness Club",
      "lat": 50.4154802,
      "lng": 30.4649778,
      "city": "Kyiv",
      "city_uk": "Київ",
      "address": "вулиця Івана Пулюя",
      "website": "http://sc-irbis.com/",
      "phone": "+380 44 249 0032;+380 98 672 6867",
      "opening_hours": "Mo-Fr 10:00-22:00; Sa 10:00-16:00"
    },
    {
      "osm_id": 6502552106,
      "osm_type": "node",
      "name": "Дитячо-юнацька спортивна школа",
      "name_uk": "Дитячо-юнацька спортивна школа",
      "name_en": "",
      "brand": "Fitness Club",
      "lat": 50.5108666,
      "lng": 30.8358481,
      "city": "Kyiv",
      "city_uk": "Київ",
      "address": "",
      "website": "",
      "phone": "",
      "opening_hours": ""
    },
    {
      "osm_id": 6672740546,
      "osm_type": "node",
      "name": "Workshop Fitness Club",
      "name_uk": "Workshop Fitness Club",
      "name_en": "Workshop Fitness Club",
      "brand": "Fitness Club",
      "lat": 50.4481794,
      "lng": 30.5051842,
      "city": "Kyiv",
      "city_uk": "Київ",
      "address": "вулиця Богдана Хмельницького",
      "website": "https://bh.workshop.org.ua/uk/",
      "phone": "+380 44 334 4324",
      "opening_hours": "Mo-Fr 07:00-22:00; Sa-Su 09:00-21:00"
    },
    {
      "osm_id": 6741726822,
      "osm_type": "node",
      "name": "Sport Life",
      "name_uk": "Sport Life",
      "name_en": "Sport Life",
      "brand": "Sport Life",
      "lat": 50.4514868,
      "lng": 30.4675015,
      "city": "Kyiv",
      "city_uk": "Київ",
      "address": "Берестейський проспект",
      "website": "",
      "phone": "",
      "opening_hours": "Mo-Fr 07:00-23:00;Sa-Su 07:00-22:00"
    },
    {
      "osm_id": 6798251486,
      "osm_type": "node",
      "name": "Workshop",
      "name_uk": "Workshop",
      "name_en": "",
      "brand": "Fitness Club",
      "lat": 50.4474912,
      "lng": 30.4224296,
      "city": "Kyiv",
      "city_uk": "Київ",
      "address": "",
      "website": "",
      "phone": "+380 68 239 1991",
      "opening_hours": ""
    },
    {
      "osm_id": 6834183545,
      "osm_type": "node",
      "name": "АтлетіКо",
      "name_uk": "АтлетіКо",
      "name_en": "",
      "brand": "Fitness Club",
      "lat": 50.4482946,
      "lng": 30.592616,
      "city": "Kyiv",
      "city_uk": "Київ",
      "address": "",
      "website": "",
      "phone": "",
      "opening_hours": "Mo-Su 07:00-23:00"
    },
    {
      "osm_id": 6910155525,
      "osm_type": "node",
      "name": "Grand Sport",
      "name_uk": "Grand Sport",
      "name_en": "",
      "brand": "Fitness Club",
      "lat": 50.3696379,
      "lng": 30.8601247,
      "city": "Kyiv",
      "city_uk": "Київ",
      "address": "Центральна вулиця",
      "website": "http://gora.grand-sport.kiev.ua",
      "phone": "",
      "opening_hours": "Mo-Fr 07:00-22:00"
    },
    {
      "osm_id": 6913318388,
      "osm_type": "node",
      "name": "ЕБШ",
      "name_uk": "ЕБШ",
      "name_en": "",
      "brand": "Fitness Club",
      "lat": 50.393036,
      "lng": 30.6162573,
      "city": "Kyiv",
      "city_uk": "Київ",
      "address": "Завальна вулиця",
      "website": "https://ebsh.ua/",
      "phone": "+380 68 282 8111",
      "opening_hours": ""
    },
    {
      "osm_id": 6952722186,
      "osm_type": "node",
      "name": "Амбал",
      "name_uk": "Амбал",
      "name_en": "Ambal",
      "brand": "Fitness Club",
      "lat": 50.3761582,
      "lng": 30.5375187,
      "city": "Kyiv",
      "city_uk": "Київ",
      "address": "",
      "website": "",
      "phone": "",
      "opening_hours": "Mo-Fr 07:30-22:30; Sa-Su 08:30-20:00"
    },
    {
      "osm_id": 7026348704,
      "osm_type": "node",
      "name": "UltraGym",
      "name_uk": "UltraGym",
      "name_en": "",
      "brand": "Fitness Club",
      "lat": 50.4402108,
      "lng": 30.2836545,
      "city": "Kyiv",
      "city_uk": "Київ",
      "address": "",
      "website": "",
      "phone": "",
      "opening_hours": ""
    },
    {
      "osm_id": 7040789475,
      "osm_type": "node",
      "name": "Спортивний комплекс Спортренд",
      "name_uk": "Спортивний комплекс Спортренд",
      "name_en": "Sportrend",
      "brand": "Fitness Club",
      "lat": 50.3836284,
      "lng": 30.7009223,
      "city": "Kyiv",
      "city_uk": "Київ",
      "address": "вулиця Євгена Харченка",
      "website": "http://sportrend.com.ua",
      "phone": "+380 98 169 1186",
      "opening_hours": ""
    },
    {
      "osm_id": 7141562677,
      "osm_type": "node",
      "name": "Voin",
      "name_uk": "Voin",
      "name_en": "",
      "brand": "Fitness Club",
      "lat": 50.4533233,
      "lng": 30.5010714,
      "city": "Kyiv",
      "city_uk": "Київ",
      "address": "",
      "website": "https://www.crossfitvoin.com/",
      "phone": "+380 50 613 5558",
      "opening_hours": "Mo-Fr 07:00-22:00; Sa, Su 11:00-16:00"
    },
    {
      "osm_id": 7182849012,
      "osm_type": "node",
      "name": "Фитлайн",
      "name_uk": "Фитлайн",
      "name_en": "",
      "brand": "Fitness Club",
      "lat": 50.4708739,
      "lng": 30.32983,
      "city": "Kyiv",
      "city_uk": "Київ",
      "address": "",
      "website": "",
      "phone": "",
      "opening_hours": ""
    },
    {
      "osm_id": 7238307589,
      "osm_type": "node",
      "name": "Body&Spirit",
      "name_uk": "Body&Spirit",
      "name_en": "Body&Spirit",
      "brand": "Fitness Club",
      "lat": 50.4964998,
      "lng": 30.4595653,
      "city": "Kyiv",
      "city_uk": "Київ",
      "address": "",
      "website": "http://body-spirit.com.ua",
      "phone": "+380 93 840 8238",
      "opening_hours": ""
    },
    {
      "osm_id": 7300407086,
      "osm_type": "node",
      "name": "Олімп",
      "name_uk": "Олімп",
      "name_en": "",
      "brand": "Fitness Club",
      "lat": 50.4572748,
      "lng": 30.413311,
      "city": "Kyiv",
      "city_uk": "Київ",
      "address": "Берестейський проспект",
      "website": "",
      "phone": "",
      "opening_hours": ""
    },
    {
      "osm_id": 7345694005,
      "osm_type": "node",
      "name": "Витязь",
      "name_uk": "Витязь",
      "name_en": "",
      "brand": "Fitness Club",
      "lat": 50.5100578,
      "lng": 30.774065,
      "city": "Kyiv",
      "city_uk": "Київ",
      "address": "",
      "website": "",
      "phone": "",
      "opening_hours": ""
    },
    {
      "osm_id": 7423976250,
      "osm_type": "node",
      "name": "MegaGym",
      "name_uk": "MegaGym",
      "name_en": "",
      "brand": "Fitness Club",
      "lat": 50.4317975,
      "lng": 30.6341052,
      "city": "Kyiv",
      "city_uk": "Київ",
      "address": "",
      "website": "https://megagym.com/",
      "phone": "",
      "opening_hours": ""
    },
    {
      "osm_id": 7532048329,
      "osm_type": "node",
      "name": "Тренажерний зал гуртожитку №11",
      "name_uk": "Тренажерний зал гуртожитку №11",
      "name_en": "",
      "brand": "Fitness Club",
      "lat": 50.4378116,
      "lng": 30.4400011,
      "city": "Kyiv",
      "city_uk": "Київ",
      "address": "",
      "website": "",
      "phone": "",
      "opening_hours": ""
    },
    {
      "osm_id": 7591198789,
      "osm_type": "node",
      "name": "Спорт-ресурс",
      "name_uk": "Спорт-ресурс",
      "name_en": "",
      "brand": "Fitness Club",
      "lat": 50.4193277,
      "lng": 30.534526,
      "city": "Kyiv",
      "city_uk": "Київ",
      "address": "",
      "website": "http://sportres.com.ua/",
      "phone": "+380 93 671 4557;+380 98 689 7379",
      "opening_hours": ""
    },
    {
      "osm_id": 7593004131,
      "osm_type": "node",
      "name": "Obolon Sport Club",
      "name_uk": "Obolon Sport Club",
      "name_en": "Obolon Sport Club",
      "brand": "Sport Club",
      "lat": 50.4909723,
      "lng": 30.5265646,
      "city": "Kyiv",
      "city_uk": "Київ",
      "address": "",
      "website": "",
      "phone": "",
      "opening_hours": ""
    },
    {
      "osm_id": 7603720148,
      "osm_type": "node",
      "name": "Red Barbell",
      "name_uk": "Ред Барбел",
      "name_en": "",
      "brand": "Fitness Club",
      "lat": 50.3862949,
      "lng": 30.4698041,
      "city": "Kyiv",
      "city_uk": "Київ",
      "address": "",
      "website": "https://redbarbell.com.ua/",
      "phone": "+380 99 128 7207",
      "opening_hours": "Sa,Su 08:00-22:00; Mo-Fr 07:00-23:00"
    },
    {
      "osm_id": 7641217984,
      "osm_type": "node",
      "name": "Фітнес-клуб «Атлетіко»",
      "name_uk": "Фітнес-клуб «Атлетіко»",
      "name_en": "",
      "brand": "Fitness Club",
      "lat": 50.4796587,
      "lng": 30.6058274,
      "city": "Kyiv",
      "city_uk": "Київ",
      "address": "",
      "website": "https://atletiko.club",
      "phone": "",
      "opening_hours": "07:00-23:00"
    },
    {
      "osm_id": 7692931652,
      "osm_type": "node",
      "name": "Тренажерний зал",
      "name_uk": "Тренажерний зал",
      "name_en": "",
      "brand": "Fitness Club",
      "lat": 50.518321,
      "lng": 30.2140881,
      "city": "Kyiv",
      "city_uk": "Київ",
      "address": "вулиця Мечникова",
      "website": "",
      "phone": "",
      "opening_hours": ""
    },
    {
      "osm_id": 7767798197,
      "osm_type": "node",
      "name": "XL",
      "name_uk": "XL",
      "name_en": "",
      "brand": "Fitness Club",
      "lat": 50.4540896,
      "lng": 30.4886285,
      "city": "Kyiv",
      "city_uk": "Київ",
      "address": "",
      "website": "",
      "phone": "",
      "opening_hours": ""
    },
    {
      "osm_id": 7861005524,
      "osm_type": "node",
      "name": "Erix",
      "name_uk": "Erix",
      "name_en": "",
      "brand": "Fitness Club",
      "lat": 50.4076044,
      "lng": 30.5128645,
      "city": "Kyiv",
      "city_uk": "Київ",
      "address": "",
      "website": "",
      "phone": "",
      "opening_hours": ""
    },
    {
      "osm_id": 7874702318,
      "osm_type": "node",
      "name": "Скеледром Funnatic",
      "name_uk": "Скеледром Funnatic",
      "name_en": "",
      "brand": "Fitness Club",
      "lat": 50.4465693,
      "lng": 30.4435451,
      "city": "Kyiv",
      "city_uk": "Київ",
      "address": "Борщагівська вулиця",
      "website": "",
      "phone": "",
      "opening_hours": "Mo-Fr 10:00-22:00; Sa-Su 12:00-20:00"
    },
    {
      "osm_id": 7875633870,
      "osm_type": "node",
      "name": "2Lstudio",
      "name_uk": "2Lstudio",
      "name_en": "",
      "brand": "Fitness Club",
      "lat": 50.438888,
      "lng": 30.4399588,
      "city": "Kyiv",
      "city_uk": "Київ",
      "address": "",
      "website": "",
      "phone": "",
      "opening_hours": ""
    },
    {
      "osm_id": 8066694733,
      "osm_type": "node",
      "name": "Evolve",
      "name_uk": "Evolve",
      "name_en": "Evolve",
      "brand": "Fitness Club",
      "lat": 50.4925614,
      "lng": 30.5240151,
      "city": "Kyiv",
      "city_uk": "Київ",
      "address": "",
      "website": "",
      "phone": "",
      "opening_hours": ""
    },
    {
      "osm_id": 8286101250,
      "osm_type": "node",
      "name": "Sport Life",
      "name_uk": "Sport Life",
      "name_en": "",
      "brand": "Sport Life",
      "lat": 50.5165169,
      "lng": 30.6188766,
      "city": "Kyiv",
      "city_uk": "Київ",
      "address": "",
      "website": "https://www.sportlife.ua/uk/clubs/kiev/troeschina",
      "phone": "+380 44 222 4222",
      "opening_hours": "Mo-Fr 07:00-22:00; Sa, Su 09:00-20:00"
    },
    {
      "osm_id": 8287455021,
      "osm_type": "node",
      "name": "ССпортлайф",
      "name_uk": "ССпортлайф",
      "name_en": "",
      "brand": "Fitness Club",
      "lat": 50.3901037,
      "lng": 30.3815263,
      "city": "Kyiv",
      "city_uk": "Київ",
      "address": "",
      "website": "",
      "phone": "",
      "opening_hours": ""
    },
    {
      "osm_id": 8304517733,
      "osm_type": "node",
      "name": "SportLife",
      "name_uk": "SportLife",
      "name_en": "",
      "brand": "SportLife",
      "lat": 50.40262,
      "lng": 30.5109183,
      "city": "Kyiv",
      "city_uk": "Київ",
      "address": "",
      "website": "",
      "phone": "",
      "opening_hours": "Mo-Fr 08:00-22:00; Sa, Su 09:00-20:00"
    },
    {
      "osm_id": 8310823965,
      "osm_type": "node",
      "name": "Фітнес клуб Лідер",
      "name_uk": "Фітнес клуб Лідер",
      "name_en": "",
      "brand": "Fitness Club",
      "lat": 50.4346747,
      "lng": 30.4433373,
      "city": "Kyiv",
      "city_uk": "Київ",
      "address": "вулиця Августина Волошина",
      "website": "",
      "phone": "",
      "opening_hours": ""
    },
    {
      "osm_id": 8449669225,
      "osm_type": "node",
      "name": "Do Yoga",
      "name_uk": "Do Yoga",
      "name_en": "Do Yoga",
      "brand": "Fitness Club",
      "lat": 50.4664942,
      "lng": 30.4296901,
      "city": "Kyiv",
      "city_uk": "Київ",
      "address": "",
      "website": "https://doyoga.kiev.ua/",
      "phone": "",
      "opening_hours": ""
    },
    {
      "osm_id": 8538871519,
      "osm_type": "node",
      "name": "Dojo Sport",
      "name_uk": "Dojo Sport",
      "name_en": "",
      "brand": "Fitness Club",
      "lat": 50.4410225,
      "lng": 30.4346509,
      "city": "Kyiv",
      "city_uk": "Київ",
      "address": "",
      "website": "",
      "phone": "",
      "opening_hours": ""
    },
    {
      "osm_id": 8572700863,
      "osm_type": "node",
      "name": "AV sport hub",
      "name_uk": "AV sport hub",
      "name_en": "",
      "brand": "Fitness Club",
      "lat": 50.4331978,
      "lng": 30.4482495,
      "city": "Kyiv",
      "city_uk": "Київ",
      "address": "",
      "website": "",
      "phone": "",
      "opening_hours": ""
    },
    {
      "osm_id": 8761803717,
      "osm_type": "node",
      "name": "Престиж",
      "name_uk": "Престиж",
      "name_en": "Prestige",
      "brand": "Fitness Club",
      "lat": 50.4476958,
      "lng": 30.4404216,
      "city": "Kyiv",
      "city_uk": "Київ",
      "address": "",
      "website": "",
      "phone": "",
      "opening_hours": ""
    },
    {
      "osm_id": 8762076720,
      "osm_type": "node",
      "name": "Водіс йодіс",
      "name_uk": "Водіс йодіс",
      "name_en": "",
      "brand": "Fitness Club",
      "lat": 50.4536027,
      "lng": 30.4701103,
      "city": "Kyiv",
      "city_uk": "Київ",
      "address": "",
      "website": "",
      "phone": "",
      "opening_hours": ""
    },
    {
      "osm_id": 8773611697,
      "osm_type": "node",
      "name": "ФітХаб",
      "name_uk": "ФітХаб",
      "name_en": "FitHub",
      "brand": "Fitness Club",
      "lat": 50.3869835,
      "lng": 30.6966153,
      "city": "Kyiv",
      "city_uk": "Київ",
      "address": "вулиця Івана Дяченка",
      "website": "https://www.facebook.com/FitHubKyivSportClub/",
      "phone": "+380 73 273 0372",
      "opening_hours": "Mo-Fr 07:00-23:00; Sa-Su 08:00-22:00"
    },
    {
      "osm_id": 8812772065,
      "osm_type": "node",
      "name": "Галактика",
      "name_uk": "Галактика",
      "name_en": "",
      "brand": "Fitness Club",
      "lat": 50.434909,
      "lng": 30.4782202,
      "city": "Kyiv",
      "city_uk": "Київ",
      "address": "",
      "website": "",
      "phone": "+380 44 520 1453",
      "opening_hours": "Mo-Fr 07:00-23:00; Sa 09:00-21:00; Su 10:00-21:00"
    },
    {
      "osm_id": 8823568163,
      "osm_type": "node",
      "name": "Aqualife",
      "name_uk": "Aqualife",
      "name_en": "Aqualife",
      "brand": "Fitness Club",
      "lat": 50.4453546,
      "lng": 30.5321042,
      "city": "Kyiv",
      "city_uk": "Київ",
      "address": "",
      "website": "https://aqualife.kiev.ua/",
      "phone": "+380 98 117 7888;+380 44 253 1177",
      "opening_hours": ""
    },
    {
      "osm_id": 8990919917,
      "osm_type": "node",
      "name": "Спортзал",
      "name_uk": "Спортзал",
      "name_en": "GYM",
      "brand": "Fitness Club",
      "lat": 50.3934203,
      "lng": 30.7851714,
      "city": "Kyiv",
      "city_uk": "Київ",
      "address": "",
      "website": "",
      "phone": "",
      "opening_hours": ""
    },
    {
      "osm_id": 9033435469,
      "osm_type": "node",
      "name": "Discipline",
      "name_uk": "Discipline",
      "name_en": "Discipline",
      "brand": "Fitness Club",
      "lat": 50.4463057,
      "lng": 30.5052917,
      "city": "Kyiv",
      "city_uk": "Київ",
      "address": "",
      "website": "",
      "phone": "",
      "opening_hours": ""
    },
    {
      "osm_id": 9108584518,
      "osm_type": "node",
      "name": "Студія йоги \"Асана\"",
      "name_uk": "Студія йоги \"Асана\"",
      "name_en": "",
      "brand": "Fitness Club",
      "lat": 50.4796091,
      "lng": 30.6038406,
      "city": "Kyiv",
      "city_uk": "Київ",
      "address": "",
      "website": "",
      "phone": "+380 96 313 2157",
      "opening_hours": ""
    },
    {
      "osm_id": 9116526733,
      "osm_type": "node",
      "name": "Кий",
      "name_uk": "Кий",
      "name_en": "",
      "brand": "Fitness Club",
      "lat": 50.3692959,
      "lng": 30.3903138,
      "city": "Kyiv",
      "city_uk": "Київ",
      "address": "Одеська вулиця",
      "website": "https://pool-billard-club-163.business.site/",
      "phone": "+380 97 400 2012",
      "opening_hours": "Mo-Th 15:00-00:00; Fr 15:00-02:00; Sa 12:00-02:00; Su 12:00-00:00"
    },
    {
      "osm_id": 9128019448,
      "osm_type": "node",
      "name": "Спортивний зал",
      "name_uk": "Спортивний зал",
      "name_en": "",
      "brand": "Fitness Club",
      "lat": 50.3842462,
      "lng": 30.4737566,
      "city": "Kyiv",
      "city_uk": "Київ",
      "address": "",
      "website": "",
      "phone": "",
      "opening_hours": ""
    },
    {
      "osm_id": 9150316361,
      "osm_type": "node",
      "name": "Urban Gym",
      "name_uk": "Urban Gym",
      "name_en": "Urban Gym",
      "brand": "Fitness Club",
      "lat": 50.4365168,
      "lng": 30.5332902,
      "city": "Kyiv",
      "city_uk": "Київ",
      "address": "Печерський узвіз",
      "website": "",
      "phone": "+380 67 585 7979",
      "opening_hours": "Mo-Fr 07:00-22:00; Sa-Su 08:00-21:00"
    },
    {
      "osm_id": 9176778657,
      "osm_type": "node",
      "name": "IceGym",
      "name_uk": "IceGym",
      "name_en": "",
      "brand": "Fitness Club",
      "lat": 50.3730597,
      "lng": 30.4675239,
      "city": "Kyiv",
      "city_uk": "Київ",
      "address": "проспект Академіка Глушкова",
      "website": "https://www.instagram.com/ice_gym_kyiv/",
      "phone": "+380 93 555 1373",
      "opening_hours": "Mo-Fr 08:15-21:00, Sa-Su 09:30-17:00"
    },
    {
      "osm_id": 9186551096,
      "osm_type": "node",
      "name": "Учбово-оздоровчої водна база \"Десенка\"",
      "name_uk": "Учбово-оздоровчої водна база \"Десенка\"",
      "name_en": "",
      "brand": "Fitness Club",
      "lat": 50.4881427,
      "lng": 30.5468618,
      "city": "Kyiv",
      "city_uk": "Київ",
      "address": "",
      "website": "",
      "phone": "",
      "opening_hours": ""
    },
    {
      "osm_id": 9397348788,
      "osm_type": "node",
      "name": "Workshop",
      "name_uk": "Workshop",
      "name_en": "Workshop",
      "brand": "Fitness Club",
      "lat": 50.4207308,
      "lng": 30.5305971,
      "city": "Kyiv",
      "city_uk": "Київ",
      "address": "",
      "website": "",
      "phone": "",
      "opening_hours": ""
    },
    {
      "osm_id": 9434948318,
      "osm_type": "node",
      "name": "АтлетиКо",
      "name_uk": "АтлетиКо",
      "name_en": "",
      "brand": "Fitness Club",
      "lat": 50.4111698,
      "lng": 30.4073537,
      "city": "Kyiv",
      "city_uk": "Київ",
      "address": "",
      "website": "",
      "phone": "",
      "opening_hours": ""
    },
    {
      "osm_id": 9512197622,
      "osm_type": "node",
      "name": "Bullterrier Club",
      "name_uk": "Bullterrier Club",
      "name_en": "",
      "brand": "Fitness Club",
      "lat": 50.5212873,
      "lng": 30.2112671,
      "city": "Kyiv",
      "city_uk": "Київ",
      "address": "",
      "website": "",
      "phone": "",
      "opening_hours": ""
    },
    {
      "osm_id": 9512197632,
      "osm_type": "node",
      "name": "Айкідо",
      "name_uk": "Айкідо",
      "name_en": "",
      "brand": "Fitness Club",
      "lat": 50.5197124,
      "lng": 30.2140488,
      "city": "Kyiv",
      "city_uk": "Київ",
      "address": "",
      "website": "",
      "phone": "",
      "opening_hours": ""
    },
    {
      "osm_id": 10035920147,
      "osm_type": "node",
      "name": "IGym",
      "name_uk": "IGym",
      "name_en": "",
      "brand": "Fitness Club",
      "lat": 50.3826036,
      "lng": 30.4544531,
      "city": "Kyiv",
      "city_uk": "Київ",
      "address": "вулиця Героїв Маріуполя",
      "website": "https://igym.com.ua/",
      "phone": "+380 44 240 8417",
      "opening_hours": "Mo-Su 09:00-21:00"
    },
    {
      "osm_id": 10221314517,
      "osm_type": "node",
      "name": "Sweat Factory",
      "name_uk": "Sweat Factory",
      "name_en": "Sweat Factory",
      "brand": "Fitness Club",
      "lat": 50.4021944,
      "lng": 30.6245611,
      "city": "Kyiv",
      "city_uk": "Київ",
      "address": "вулиця Княжий Затон",
      "website": "",
      "phone": "",
      "opening_hours": "Mo-Su 09:00-18:00"
    },
    {
      "osm_id": 10259260786,
      "osm_type": "node",
      "name": "Yoga Space",
      "name_uk": "Yoga Space",
      "name_en": "",
      "brand": "Fitness Club",
      "lat": 50.4628819,
      "lng": 30.5928984,
      "city": "Kyiv",
      "city_uk": "Київ",
      "address": "",
      "website": "https://beautyprosoftware.com/b/yospace-onlinebooking",
      "phone": "+380 (63) 674-20-26",
      "opening_hours": "Mo-Sa 08:00-21:30"
    },
    {
      "osm_id": 10712233307,
      "osm_type": "node",
      "name": "Спортивний клуб карате \"Сентай\"",
      "name_uk": "Спортивний клуб карате \"Сентай\"",
      "name_en": "Karate club \"Sentai\"",
      "brand": "Fitness Club",
      "lat": 50.4649744,
      "lng": 30.5117777,
      "city": "Kyiv",
      "city_uk": "Київ",
      "address": "вулиця Верхній Вал",
      "website": "https://sentai-club.com.ua/amp/",
      "phone": "",
      "opening_hours": "Su-Fr 10:00-20:00"
    },
    {
      "osm_id": 10892021214,
      "osm_type": "node",
      "name": "Asgard",
      "name_uk": "Asgard",
      "name_en": "",
      "brand": "Fitness Club",
      "lat": 50.4976395,
      "lng": 30.442434,
      "city": "Kyiv",
      "city_uk": "Київ",
      "address": "",
      "website": "",
      "phone": "",
      "opening_hours": ""
    },
    {
      "osm_id": 10900855325,
      "osm_type": "node",
      "name": "Geliar Gym",
      "name_uk": "Geliar Gym",
      "name_en": "",
      "brand": "Fitness Club",
      "lat": 50.4898307,
      "lng": 30.5281515,
      "city": "Kyiv",
      "city_uk": "Київ",
      "address": "",
      "website": "",
      "phone": "",
      "opening_hours": ""
    },
    {
      "osm_id": 10930775145,
      "osm_type": "node",
      "name": "Atlonica",
      "name_uk": "Atlonica",
      "name_en": "",
      "brand": "Fitness Club",
      "lat": 50.5053793,
      "lng": 30.509093,
      "city": "Kyiv",
      "city_uk": "Київ",
      "address": "",
      "website": "",
      "phone": "",
      "opening_hours": "Mo-Su 07:00-23:00"
    },
    {
      "osm_id": 10945125178,
      "osm_type": "node",
      "name": "Urban Fitness.ua",
      "name_uk": "Urban Fitness.ua",
      "name_en": "Urban Fitness.ua",
      "brand": "Fitness Club",
      "lat": 50.5038379,
      "lng": 30.4599882,
      "city": "Kyiv",
      "city_uk": "Київ",
      "address": "",
      "website": "",
      "phone": "",
      "opening_hours": ""
    },
    {
      "osm_id": 10973618528,
      "osm_type": "node",
      "name": "Jungle",
      "name_uk": "Jungle",
      "name_en": "Jungle",
      "brand": "Fitness Club",
      "lat": 50.4436777,
      "lng": 30.5226452,
      "city": "Kyiv",
      "city_uk": "Київ",
      "address": "",
      "website": "",
      "phone": "",
      "opening_hours": ""
    },
    {
      "osm_id": 11007283605,
      "osm_type": "node",
      "name": "Goodwill",
      "name_uk": "Goodwill",
      "name_en": "",
      "brand": "Fitness Club",
      "lat": 50.4460704,
      "lng": 30.6061086,
      "city": "Kyiv",
      "city_uk": "Київ",
      "address": "",
      "website": "",
      "phone": "",
      "opening_hours": ""
    },
    {
      "osm_id": 11012434414,
      "osm_type": "node",
      "name": "hiitworks",
      "name_uk": "Hiitworks",
      "name_en": "",
      "brand": "Fitness Club",
      "lat": 50.4496056,
      "lng": 30.4215884,
      "city": "Kyiv",
      "city_uk": "Київ",
      "address": "",
      "website": "",
      "phone": "+38 050 103-22-22",
      "opening_hours": "Mo-Fr 07:00-21:00; Sa, Su 10:00-16:00"
    },
    {
      "osm_id": 11016454260,
      "osm_type": "node",
      "name": "Forward",
      "name_uk": "Forward",
      "name_en": "",
      "brand": "Fitness Club",
      "lat": 50.4226564,
      "lng": 30.4652088,
      "city": "Kyiv",
      "city_uk": "Київ",
      "address": "",
      "website": "forwardgym.com.ua",
      "phone": "",
      "opening_hours": ""
    },
    {
      "osm_id": 11133371070,
      "osm_type": "node",
      "name": "ФСК \"Економіст\"",
      "name_uk": "ФСК \"Економіст\"",
      "name_en": "",
      "brand": "Fitness Club",
      "lat": 50.4601853,
      "lng": 30.4345134,
      "city": "Kyiv",
      "city_uk": "Київ",
      "address": "",
      "website": "",
      "phone": "",
      "opening_hours": ""
    },