{
  "clubs": [
    {
      "club_id": "019",
      "name": "APOLLO NEXT 019",
      "city": "Київ",
      "mall": "ТРЦ Дрімтаун-1",
      "address": "Оболонський проспект, 1Б",
      "lat": 50.5015,
      "lng": 30.4982
    },
    {
      "club_id": "020",
      "name": "APOLLO NEXT 020",
      "city": "Київ",
      "mall": "ТРЦ Харьок",
      "address": "вулиця Декабристів, 9Е",
      "lat": 50.4562,
      "lng": 30.615
    },
    {
      "club_id": "021",
      "name": "APOLLO NEXT 021",
      "city": "Київ",
      "mall": "ТРЦ АренаСіті",
      "address": "вулиця Басейна, 1-3/2",
      "lat": 50.4385,
      "lng": 30.5196
    },
    {
      "club_id": "022",
      "name": "APOLLO NEXT 022",
      "city": "Київ",
      "mall": "ТРЦ Алладін",
      "address": "вулиця Михайла Гришка, 3А",
      "lat": 50.4147,
      "lng": 30.6202
    },
    {
      "club_id": "023",
      "name": "APOLLO NEXT 023",
      "city": "Київ",
      "mall": "ТРЦ Cosmo Multimall",
      "address": "вулиця Вадима Гетьмана, 6",
      "lat": 50.4447,
      "lng": 30.438
    },
    {
      "club_id": "024",
      "name": "APOLLO NEXT 024",
      "city": "Львів",
      "mall": "ТРЦ Victoria Gardens",
      "address": "вулиця Кульпарківська, 226А",
      "lat": 49.7987,
      "lng": 23.9877
    },
    {
      "club_id": "025",
      "name": "APOLLO NEXT 025",
      "city": "Київ",
      "mall": "ТРЦ Ocean Plaza",
      "address": "вулиця Антоновича, 176",
      "lat": 50.4107,
      "lng": 30.5225
    },
    {
      "club_id": "026",
      "name": "APOLLO NEXT 026",
      "city": "Київ",
      "mall": "ТРЦ Фестивальний",
      "address": "проспект Червоної Калини, 43/2",
      "lat": 50.3972,
      "lng": 30.641
    },
    {
      "club_id": "027",
      "name": "APOLLO NEXT 027",
      "city": "Бориспіль",
      "mall": "ЦУМ",
      "address": "вулиця Київський шлях, 14Ж",
      "lat": 50.3528,
      "lng": 30.9575
    },
    {
      "club_id": "028",
      "name": "APOLLO NEXT 028",
      "city": "Київ",
      "mall": "ТЦ Уніцентр",
      "address": "Дарницька площа, 1",
      "lat": 50.4148,
      "lng": 30.6672
    },
    {
      "club_id": "029",
      "name": "APOLLO NEXT 029",
      "city": "Київ",
      "mall": "ТЦ Ультрамарин",
      "address": "вулиця Василя Липківського, 1А",
      "lat": 50.4358,
      "lng": 30.4272
    },
    {
      "club_id": "030",
      "name": "APOLLO NEXT 030",
      "city": "Київ",
      "mall": "ТЦ Магелан",
      "address": "проспект Академіка Глушкова, 13Б",
      "lat": 50.3593,
      "lng": 30.4898
    },
    {
      "club_id": "031",
      "name": "APOLLO NEXT 031",
      "city": "Київ",
      "mall": "ТРЦ Сільпо",
      "address": "бульвар Миколи Руденка, 14М",
      "lat": 50.5193,
      "lng": 30.6032
    },
    {
      "club_id": "032",
      "name": "APOLLO NEXT 032",
      "city": "Київ",
      "mall": "ТРЦ Сільпо",
      "address": "вулиця Самійла Кішки, 7",
      "lat": 50.464,
      "lng": 30.5958
    },
    {
      "club_id": "033",
      "name": "APOLLO NEXT 033",
      "city": "Вінниця",
      "mall": "ТРЦ Магігранд",
      "address": "вулиця Келецька, 78в",
      "lat": 49.2175,
      "lng": 28.4078
    },
    {
      "club_id": "034",
      "name": "APOLLO NEXT 034",
      "city": "Львів",
      "mall": "БЦ Таурус",
      "address": "вулиця Героїв УПА, 73б",
      "lat": 49.8303,
      "lng": 23.996
    },
    {
      "club_id": "035",
      "name": "APOLLO NEXT 035",
      "city": "Біла Церква",
      "mall": "ТРЦ Гермес",
      "address": "вулиця Ярослава Мудрого, 40",
      "lat": 49.7987,
      "lng": 30.1188
    },
    {
      "club_id": "036",
      "name": "APOLLO NEXT 036",
      "city": "Одеса",
      "mall": "ТЦ Сім'я",
      "address": "вулиця Семена Палія, 93А",
      "lat": 46.436,
      "lng": 30.7268
    },
    {
      "club_id": "037",
      "name": "APOLLO NEXT 037",
      "city": "Одеса",
      "mall": "ТЦ Острів",
      "address": "вулиця Новощіпний Ряд, 2",
      "lat": 46.4734,
      "lng": 30.731
    }
  ]
}